#loc_id;name;lat;lon
0;Wien;48.21;16.36
80075;Hohndorf;50.611879;12.135526
80074;Grünbach;48.69889;9.84289
80063;Alt Ruppin;52.947222;12.849444
80067;Buskow;52.86737;12.81375
80077;Krangen;52.985;12.854444
80091;Stöffin;52.947222;12.849444
80092;Temnitz;52.933333;12.666667
80079;Lauterbach (Rügen);54.343132;13.500345
80083;Muglitz;54.341431;13.552315
466;Flensburg;54.78047;9.43522
16534;Flensburg;54.78047;9.43522
469;Kiel;54.3226835847914;10.1358584821225
19236;Kiel;54.3226843669499;10.1358638465405
472;Hansestadt Lübeck;53.86956;10.68758
20437;Lübeck;53.86956;10.68713
474;Neumünster;54.07404;9.98453
21517;Neumünster, Holstein;54.07402;9.984512
258;Dithmarschen;54.1474367521368;9.11139581196581
13466;Albersdorf, Holstein;54.144319;9.284703
13728;Arkebek;54.160343;9.248884
13837;Averlak;53.9404157919798;9.18355818681993
14094;Bargenstedt;54.0928582831399;9.14927636427873
14104;Barkenholm, Holstein;54.2375297612527;9.17432792628352
14107;Barlt;54.00761;9.05485
14320;Bergewöhrden;54.3185725084857;9.2107603713328
14965;Brickeln;54.0085421643372;9.22108787887367
15051;Brunsbüttel;53.897863;9.128617
15088;Buchholz, Dithmarschen;53.988560899646;9.22420527630123
15145;Büsum;54.13128;8.86236
15146;Büsumer Deichhausen;54.13641;8.88819
15170;Bunsoh, Dithmarschen;54.1643385813622;9.325005711561
15179;Burg (Dithmarschen);54.000347;9.258527
15241;Busenwurth;54.038159217082;9.04110522413804
15497;Dellstedt;54.2380156999623;9.36912670875148
15499;Delve, Holstein;54.3037902739449;9.25210461164061
15580;Diekhusen-Fahrstedt;53.9386537931351;9.0259316920546
15635;Dingen, Dithmarschen;53.9577562994337;9.1288440286425
15702;Dörpling;54.2607089315033;9.30188574040476
15954;Eddelak;53.9459641812068;9.13729432814392
15993;Eggstedt, Holstein;54.0539856954151;9.25806160601902
16143;Elpersbüttel;54.07122;9.04626
16233;Epenwöhrden;54.11262;9.0532
16450;Fedderingen;54.2826805701412;9.13183496947767
16666;Frestedt;54.02464;9.17753
16711;Friedrichsgabekoog;54.16263;8.93788
16715;Friedrichskoog, Dithmarschen;54.01213;8.90226
16861;Gaushorn;54.1947086510896;9.2232829346712
17108;Glüsing, Dithmarschen;54.2737118317976;9.21936422730032
17448;Großenrade;54.02169;9.22311
17614;Groven, Dithmarschen;54.3002302605276;8.98868155820352
17646;Gudendorf, Holstein;54.0254003841051;9.10774269545628
17744;Hägen;54.25576;9.15078
18034;Hedwigenkoog;54.17816;8.84133
18047;Heide / Holstein;54.19573;9.09109
18135;Hellschen-Heringsand-Unterschaar;54.20538;8.84581
18148;Helse;53.9721663762121;9.01170994930538
18156;Hemme, Holstein;54.27797;9.0086
18161;Hemmingstedt;54.14771;9.07252
18180;Hennstedt / Dithmarschen;54.2831260486004;9.16213119085313
18340;Hillgroven;54.21881;8.87466
18402;Hochdonn;54.02627;9.27591
18466;Hövede;54.2450572500744;9.29315716171805
18589;Hollingstedt bei Delve;54.2904634059054;9.22706551993433
18823;Immenstedt bei Albersdorf;54.176535910852;9.29970510447578
19021;Kaiser-Wilhelm-Koog;53.9428755189547;8.92646599405083
19113;Karolinenkoog;54.30072;8.9678
19442;Kleve, Dithmarschen;54.2955262664654;9.12337796445371
19669;Krempel, Holstein;54.3189;9.02875
19716;Kronprinzenkoog;53.9714911507279;8.96161969595227
19753;Krumstedt;54.06943;9.17705
19762;Kuden;53.9680004706868;9.19292736642632
20073;Lehe, Dithmarschen;54.34379;9.02545
20238;Lieth;54.1545;9.06058
20263;Linden, Holstein;54.25236;9.18142
20361;Lohe-Rickelshof;54.1871;9.06463
20498;Lunden, Holstein;54.3329120891624;9.0237369667053
20675;Marne, Holstein;53.9511274906169;9.00880578749451
20676;Marnerdeich;53.9476074804811;8.99369891577038
20799;Meldorf (Holstein);54.09195;9.06927
21411;Neuenkirchen, Dithmarschen;54.23605;8.99007
21438;Neufeld, Dithmarschen;53.9074307117022;9.01639107458863
21439;Neufelderkoog;53.906748117309;8.96890994005474
21743;Nindorf bei Meldorf;54.08771;9.10317
21775;Norddeich, Dithmarschen;54.21813;8.90007
21782;Norderheistedt;54.24454;9.14641
21787;Norderwöhrden;54.19859;9.03232
21791;Nordhastedt;54.17271;9.1822
22057;Odderade;54.13983;9.1905
22094;Oesterdeichstrich;54.15919;8.89858
22112;Offenbüttel;54.1689040710944;9.35692198718146
22224;Osterrade, Dithmarschen;54.1873273556041;9.35273103559569
22243;Ostrohe;54.214810444152;9.137088806873
22293;Pahlen;54.2677223292008;9.28990364218298
22711;Quickborn, Dithmarschen;54.0116409355575;9.21656902723583
22778;Ramhusen;53.949558518314;9.08320154838833
22901;Rehm-Flehde-Bargen;54.30274;9.03695
22959;Reinsbüttel;54.17742;8.91534
23525;Sankt Annen, Dithmarschen;54.3500100864308;9.08330614671705
23547;Sankt Michaelisdonn;53.9876896001851;9.11705572002205
23565;Sarzbüttel;54.1175713056604;9.18423024160855
23608;Schafstedt, Dithmarschen;54.0798540473944;9.2937088343792
23613;Schalkholz;54.2462679464539;9.25704658175055
23755;Schlichting, Dithmarschen;54.3168789312225;9.09705683732573
23786;Schmedeswurth;53.9262482259261;9.04012996547493
23962;Schrum, Dithmarschen;54.185915602344;9.2518283441122
23967;Schülp, Dithmarschen;54.24205;8.92995
24587;Stelle-Wittenwurth;54.25338;9.06222
24694;Strübbel;54.26368;8.96816
24727;Süderdeich, Dithmarschen;54.20061;8.90874
24733;Süderhastedt, Holstein;54.05037;9.20955
24734;Süderheistedt;54.23626;9.14855
26342;Wöhrden, Dithmarschen;54.16622;8.9963
24875;Tellingstedt;54.2199780527459;9.28276427233771
24988;Tielenhemme;54.2687005383462;9.36597511315886
25079;Trennewurth;54.0002542606926;9.03024870746407
25471;Volsemenhusen;53.9693549681431;9.07000172727379
25614;Wallen, Holstein;54.286615332734;9.26941821034433
25721;Warwerort;54.13887;8.92057
25757;Weddingstedt;54.24119;9.08817
25913;Welmbüttel;54.197477375836;9.24593620145873
25946;Wennbüttel;54.138877232781;9.32349696899013
26008;Wesselburen;54.2119;8.92084
26009;Wesselburener Deichhausen;54.17562;8.93801
26010;Wesselburenerkoog;54.23974;8.87695
26012;Wesseln, Dithmarschen;54.20767;9.07566
26024;Westerborstel;54.2201936824486;9.2604295178707
26026;Westerdeichstrich;54.16132;8.86023
26109;Wiemerstedt;54.26782;9.11235
26221;Windbergen;54.0453;9.11905
26414;Wolmersdorf;54.07715;9.10363
26454;Wrohm, Dithmarschen;54.2127447881436;9.37984816873626
21783;Nordermeldorf;54.13136;8.99435
24886;Tensbüttel-Röst;54.1089794349486;9.24357700678635
24728;Süderdorf;54.2193617376415;9.34410840416507
22095;Oesterwurth;54.21255;8.98353
463;Herzogtum Lauenburg;53.6013265151515;10.5866053030303
13475;Albsfelde;53.68057;10.69432
13623;Alt Mölln;53.62249;10.65775
13824;Aumühle bei Hamburg;53.52818;10.31357
14022;Bäk bei Ratzeburg;53.71405;10.78621
14023;Bälau;53.61672;10.62172
14141;Basedow, Kreis Herzogtum Lauenburg;53.4174161542424;10.5836433227539
14145;Basthorst, Kreis Herzogtum Lauenburg;53.57803;10.47128
14211;Behlendorf;53.69922;10.66799
14352;Berkenthin;53.73066;10.64776
14408;Besenthal;53.53021;10.74237
14604;Bliestorf;53.76881;10.60245
14700;Börnsen;53.46926;10.28125
14809;Borstorf;53.61371;10.56475
14918;Breitenfelde, Kreis Herzogtum Lauenburg;53.60683;10.63049
14996;Bröthen, Kreis Herzogtum Lauenburg;53.48024;10.66704
15052;Brunsmark;53.61715;10.74933
15053;Brunstorf, Kreis Herzogtum Lauenburg;53.49403;10.4219
15091;Buchholz bei Ratzeburg;53.73093;10.7453
15096;Buchhorst, Kreis Herzogtum Lauenburg;53.38633;10.56469
15106;Büchen, Lauenburg;53.48324;10.6135400000001
15394;Dahmker;53.58782;10.44471
15405;Dalldorf, Kreis Herzogtum Lauenburg;53.43459;10.61192
15449;Dassendorf;53.49119;10.37336
15858;Düchelsdorf;53.73666;10.58349
15895;Duvensee;53.69265;10.56852
16061;Einhaus bei Ratzeburg;53.71399;10.73405
16138;Elmenhorst, Kreis Herzogtum Lauenburg;53.54535;10.53587
16321;Escheburg;53.46655;10.30924
16521;Fitzen;53.49452;10.64661
16624;Fredeburg bei Ratzeburg;53.67272;10.72476
16771;Fuhlenhagen;53.5747021129107;10.5261449996948
16875;Geesthacht;53.43018;10.3741
17029;Giesensdorf bei Ratzeburg;53.68851;10.71397
17140;Göldenitz bei Berkenthin;53.72207;10.63191
17175;Göttin, Kreis Herzogtum Lauenburg;53.53398;10.70292
17252;Grabau bei Schwarzenbek;53.51368;10.51962
17293;Grambek;53.57143;10.68256
17375;Grinau;53.77624;10.5483
17419;Groß Boden;53.75279;10.45287
17431;Groß Disnack;53.74321;10.69239
17470;Groß Grönau;53.7953;10.75594
17546;Groß Pampau;53.52224;10.56164
17571;Groß Sarau;53.76933;10.73518
17574;Groß Schenkenberg;53.79517;10.56518
17613;Grove;53.5287;10.49472
17649;Gudow, Kreis Herzogtum Lauenburg;53.55562;10.77045
17659;Gülzow, Kreis Herzogtum Lauenburg;53.44164;10.49079
17672;Güster;53.53825;10.6808
17844;Hamfelde (Herzogtum Lauenburg);53.59609;10.44776
17861;Hamwarde;53.45298;10.42135
17901;Harmsdorf bei Ratzeburg;53.70014;10.7261
18005;Havekost bei Schwarzenbek;53.53996;10.47288
18515;Hohenhorn;53.47574;10.3663
18584;Hollenbek, Kreis Herzogtum Lauenburg;53.59185;10.8196399999999
18667;Hornbek;53.56041;10.64644
18680;Horst, Kreis Herzogtum Lauenburg;53.63351;10.76604
18996;Juliusburg;53.4164966852724;10.5067940810394
19073;Kankelau;53.54939;10.56789
19129;Kasseburg bei Trittau;53.56703;10.41496
19139;Kastorf, Holstein;53.74952;10.57107
19343;Kittlitz bei Ratzeburg;53.66417;10.91819
19408;Klein Pampau;53.51095;10.57483
19431;Klein Zecher;53.57694;10.87314
19433;Klempau;53.7644935161454;10.6637504928589
19454;Klinkrade, Kreis Herzogtum Lauenburg;53.71622;10.55107
19493;Koberg, Kreis Herzogtum Lauenburg;53.63899;10.52462
19564;Köthel (Herzogtum Lauenburg);53.60972;10.50814
19590;Kollow, Kreis Herzogtum Lauenburg;53.46375;10.46009
19703;Kröppelshagen-Fahrendorf;53.48588;10.3156
19735;Krüzen;53.40272;10.5268
19740;Krukow, Kreis Herzogtum Lauenburg;53.41916;10.48076
19748;Krummesse;53.78038;10.64071
19761;Kuddewörde;53.58706;10.40043
19772;Kühsen;53.68184;10.61373
19803;Kulpin bei Ratzeburg;53.71027;10.69562
19838;Labenz;53.70939;10.52624
19934;Langenlehsten;53.50169;10.74112
19973;Lankau;53.66918;10.66792
19977;Lanze, Kreis Herzogtum Lauenburg;53.3872275808749;10.6048541474628
20007;Lauenburg / Elbe;53.37582;10.54703
20078;Lehmrade, Holstein;53.59474;10.75208
20251;Linau;53.64476;10.47187
20446;Lüchow bei Sandesneben;53.6908;10.52954
20473;Lütau;53.43527;10.54896
20737;Mechow bei Ratzeburg;53.71745;10.8024
20999;Möhnsen;53.56019;10.46574
21009;Mölln, Kreis Herzogtum Lauenburg;53.63001;10.69269
21150;Mühlenrade;53.59609;10.4883
21208;Müssen, Kreis Herzogtum Lauenburg;53.49243;10.5644
21230;Mustin bei Ratzeburg;53.68562;10.88557
21723;Niendorf bei Berkenthin;53.70231;10.62614
21725;Niendorf / Stecknitz;53.58849;10.61105
21847;Nusse;53.65911;10.57781
22306;Panten;53.66324;10.61828
22543;Pogeez;53.75032;10.72873
22545;Poggensee bei Nusse;53.6428;10.57935
22835;Ratzeburg;53.69955;10.7596
23161;Ritzerau;53.66339;10.56713
23222;Römnitz;53.71079;10.76928
23275;Rondeshagen;53.75363;10.62894
23289;Roseburg;53.5325;10.62703
23479;Sahms;53.52475;10.53289
23485;Salem bei Ratzeburg;53.65699;10.82756
23516;Sandesneben;53.68798;10.49639
23710;Schiphorst;53.70783;10.46135
23800;Schmilau;53.6623048649761;10.7579422973871
23817;Schnakenbek;53.38511;10.50021
23857;Schönberg (Kreis Herzogtum Lauenburg);53.68176;10.42929
23958;Schretstaken;53.58443;10.54867
23971;Schürensöhlen;53.76347;10.47186
23978;Schulendorf, Lauenburg;53.47398;10.55952
24040;Schwarzenbek;53.50177;10.47992
24117;Seedorf, Kreis Herzogtum Lauenburg;53.61925;10.8665
24240;Siebenbäumen;53.74982;10.52843
24241;Siebeneichen, Kreis Herzogtum Lauenburg;53.51139;10.61771
24262;Sierksrade;53.73515;10.60045
24314;Sirksfelde;53.66528;10.50928
24566;Steinhorst, Kreis Herzogtum Lauenburg;53.72058;10.48532
24598;Sterley;53.62066;10.81868
24702;Stubben bei Bad Oldesloe;53.7336;10.42974
24806;Talkau;53.57464;10.57174
25042;Tramm, Kreis Herzogtum Lauenburg;53.56356;10.61571
25608;Walksfelde;53.63081;10.5758
25669;Wangelau;53.45461;10.55031
25952;Wentorf bei Hamburg;53.4910507255367;10.2520558834076
25951;Wentorf (Amt Sandesneben);53.68311;10.46705
26119;Wiershop;53.442401;10.451459
26333;Witzeeze;53.45312;10.60708
26372;Wohltorf;53.51973;10.2784
26426;Woltersdorf, Kreis Herzogtum Lauenburg;53.57811;10.63904
26443;Worth bei Geesthacht;53.46975;10.41124
26625;Ziethen bei Ratzeburg;53.69116;10.80862
477;Nordfriesland;54.635423;8.724075
13379;Achtrup;54.789255246;9.02637110948
13438;Ahrenshöft;54.5601031015988;9.06629189992491
13440;Ahrenviöl;54.5312121028596;9.20695471762847
13441;Ahrenviölfeld;54.5336026278284;9.27625897525977
13498;Alkersum;54.7088051645502;8.50931243002416
13517;Almdorf;54.5823747614052;9.01391118764879
13729;Arlewatt;54.5376441888977;9.08203914905135
13836;Aventoft;54.8998206003509;8.81094662249363
14101;Bargum;54.7030181062223;8.94391626119615
14215;Behrendorf bei Husum;54.5650983219065;9.22293841838838
14720;Bohmstedt;54.5812097027101;9.04379300773145
14749;Bondelum;54.5565195722906;9.26667653024198
14767;Bordelum;54.6328515070567;8.93233393473619
14774;Borgsum;54.7023309736;8.45862859543
14812;Bosbüll;54.8241884491;8.8613271188
14835;Braderup bei Niebüll;54.8356161959;8.8904983834
14849;Bramstedtlund;54.8401580717571;9.08700937628744
14888;Bredstedt;54.6172170716186;8.97173076868058
14935;Breklum;54.6034115885696;8.98341648280622
15378;Dagebüll;54.7285687938;8.70576178431
15789;Drage, Nordfriesland;54.35561;9.15708
15823;Drelsdorf;54.6050071281228;9.03692722320558
15886;Dunsum;54.7314916852;8.4253262883
16108;Elisabeth-Sophien-Koog;54.5100442584;8.87977814079
16125;Ellhöft;54.8887762811;8.95747905374
16665;Fresendelf;54.3932918586437;9.24855873132292
16717;Friedrichstadt an der Eider;54.3750907340393;9.0913538370846
16724;Friedrich-Wilhelm-Lübke-Koog;54.8628104654;8.62504290342
19313;Garding, Kirchspiel;54.3186023078094;8.77934989674094
16832;Garding;54.3284176784701;8.78681403739442
17190;Goldebek, Nordfriesland;54.6811116925187;9.14962962269784
17191;Goldelund;54.6786220371778;9.10900153219701
17387;Gröde, Hallig;54.6331128925;8.72548138499
17612;Grothusenkoog;54.3010757049099;8.75887860698703
17942;Haselund;54.5917227820248;9.18273277580739
17972;Hattstedt;54.5312215281043;9.02176119530741
17973;Hattstedtermarsch;54.5436255946865;8.97970174593919
18433;Högel;54.6420466057864;9.05858270823957
18453;Hörnum (Sylt);54.7573271288;8.28744331058
18595;Holm bei Süderlügum;54.8312104194;8.86064539706
18639;Hooge, Hallig;54.56597;8.550049
18682;Horstedt bei Husum;54.525602622014;9.06898014391009
18697;Hude bei Husum;54.3879015358767;9.21359412515704
18745;Humptrup;54.8631606298;8.86437823773
18761;Husum, Nordsee;54.4852810364947;9.05329324448649
18824;Immenstedt, Nordfriesland;54.5382930036847;9.14935964345168
18971;Joldelund;54.6533733820092;9.13603886961938
19068;Kampen (Sylt);54.956531;8.345022
19110;Karlum;54.8285962451;8.97507379805
19141;Katharinenheerd;54.335360127762;8.8292713944434
19350;Klanxbüll;54.8621880893;8.67932727337
19458;Klixbüll;54.7936302392;8.91007589101
19582;Koldenbüttel;54.3876945920903;9.06775169218127
19584;Kolkerheide;54.6202788854378;9.13054101169111
19627;Kotzenbüll;54.3334081547916;8.90334529025548
19846;Ladelund;54.8408835926;9.02341043353
19924;Langeneß;54.6395338201735;8.60183322617717
19932;Langenhorn bei Husum;54.6675705675993;8.91620368361471
20059;Leck;54.7718980373985;8.97466555293232
20182;Lexgaard;54.8324648731;8.93914292609
20309;List, Sylt;55.0186629678;8.43158119972
20353;Löwenstedt;54.6213535328974;9.17072854936124
20476;Lütjenholm;54.6841190793887;9.02116857469083
20917;Midlum, Föhr;54.7153416493;8.52213570531
20931;Mildstedt;54.4606076571678;9.09520678365771
21287;Nebel, Amrum;54.6504285943;8.35379624422
21484;Neukirchen bei Niebüll;54.8663281105;8.73749847567
21600;Nieblum;54.692166586;8.49089288767
21601;Niebüll (Schleswig);54.7881584621;8.82960150992
21776;Norddorf, Amrum;54.6795087518;8.33279454763
21781;Norderfriedrichskoog;54.4017831281687;8.90677802408279
21805;Nordstrand;54.4921277290502;8.86499707741731
21810;Norstedt;54.5861751549128;9.12920191884042
22056;Ockholm;54.6664925729276;8.81678357720376
22105;Oevenum;54.7101223336;8.53081131037
22148;Oldenswort;54.3725500570727;8.94087140603055
22149;Oldersbek;54.4429505269028;9.16460491860453
22150;Olderup;54.5380853498475;9.11192767465655
22152;Oldsum;54.7309519498854;8.44555700013347
22203;Ostenfeld (Husum);54.4633904982853;9.23103451872412
22216;Osterhever;54.3843665024602;8.76437266511906
13813;Augustenkoog;54.3882384446641;8.73860065979947
22223;Oster-Ohrstedt;54.5144870510452;9.22693744445387
22360;Pellworm;54.5162315195;8.64503389001
22572;Poppenbüll;54.36090446984;8.76124655051221
22788;Ramstedt, Nordfriesland;54.4019931235033;9.17002298081461
22804;Rantrum bei Husum;54.4404314690589;9.12936404491011
22805;Rantum (Sylt);54.8484877909;8.29269513543
23038;Reußenköge;54.6030566757119;8.90520271999829
23153;Risum-Lindholm;54.7548298165302;8.85923295771524
23179;Rodenäs;54.8882625475;8.70087077618
23550;Sankt Peter-Ording;54.3070963528309;8.63601868195536
23832;Schobüll bei Husum;54.5127649566748;8.99891615057532
23994;Schwabstedt;54.3949416884193;9.18558851028029
24087;Schwesing;54.4948242333665;9.13502887034956
24146;Seeth bei Husum;54.36643;9.16668
24298;Simonsberg bei Husum;54.4335176919981;8.9770581587607
24327;Sönnebüll;54.631051252738;8.9958766847849
24341;Sollwitt;54.5922962294548;9.23056326806547
24419;Sprakebüll;54.775692704;9.07702194452
24451;Stadum;54.7360393374135;9.05029677109727
24494;Stedesand;54.7388438555245;8.9291484659496
24693;Struckum;54.5935829601572;8.99120628833772
24729;Süderende auf Föhr;54.7257981482;8.44044321831
24735;Süderhöft;54.3820098677672;9.24237355733458
24737;Süderlügum;54.8723206467;8.90802716613
24738;Südermarsch bei Husum;54.4309769913578;9.07681420589033
24791;Sylt-Ost;54.8613563404;8.41161349471
24836;Tating, Eiderstedt;54.3246378596377;8.70513809068192
24896;Tetenbüll;54.352081941006;8.82805233044614
24994;Tinningstedt;54.8116271137369;8.93166266636857
25015;Tönning (Nordseebad);54.3180909829608;8.93713844163407
25134;Tümlauer Koog;54.3388074573546;8.6495271806239
25185;Uelvesbüll;54.415457902615;8.92619744086806
25284;Uphusum bei Süderlügum;54.8389106196;8.85887490921
25311;Utersum;54.7147402425;8.40652400311
25417;Viöl;54.5688544559706;9.18281726539136
25465;Vollerwiek;54.2912712920569;8.79792017085555
25470;Vollstedt;54.6226261458874;9.02867540717126
25920;Welt;54.3018973944765;8.7953083698273
25948;Wenningstedt (Sylt);54.937195;8.324051
26032;Westerhever;54.3818446236251;8.68027602477063
26037;Westerland;54.907748;8.308755
26042;Wester-Ohrstedt;54.5077064685643;9.18273396933619
26058;Westre;54.856226528;8.98771559596
26251;Winnert bei Husum;54.4333359400152;9.19910416150633
26294;Wisch, Nordfriesland;54.4084407840579;9.15410809362475
26302;Witsum;54.6981291254674;8.44161884674735
26303;Wittbek bei Husum;54.4730463467327;9.20209147179667
26304;Wittdün, Amrum;54.627099476;8.38922956641
26339;Witzwort;54.4000633859804;8.98452703995698
26340;Wobbenbüll;54.5232092065271;8.99351525305938
26453;Wrixum;54.6997622741;8.54672753866
26512;Wyk auf Föhr;54.6875716901;8.55363690908
16812;Galmsbüll;54.7653204750693;8.70212808251381
16181;Emmelsbüll-Horsbüll;54.8116961020899;8.68802034910201
16218;Enge-Sande;54.7265176859968;8.98085974411973
480;Ostholstein;54.1766628571429;10.84762
13434;Ahrensbök;54.0102;10.5717
13576;Altenkrempe;54.13282;10.82612
13991;Bad Schwartau;53.92105;10.67955
14405;Beschendorf;54.18197;10.87873
14811;Bosau;54.1043615627237;10.4301577125311
15390;Dahme, Holstein;54.22062;11.0848100000001
35740;Damlos;54.24254;10.90765
16397;Eutin;54.13765;10.61616
17132;Göhl;54.28521;10.94075
17339;Gremersdorf, Holstein;54.33308;10.93062
17393;Grömitz;54.15113;10.95649
17442;Großenbrode;54.36949;11.08533
17616;Grube, Holstein;54.23522;11.03525
17902;Harmsdorf, Holstein;54.2418;10.8298
18079;Heiligenhafen, Holstein;54.37243;10.97918
18215;Heringsdorf, Holstein;54.300776;11.004684
19000;Kabelhorst;54.21648;10.9231
19130;Kasseedorf;54.16598;10.72303
19184;Kellenhusen (Ostsee);54.19326;11.05901
20144;Lensahn;54.21955;10.88347
20568;Malente;54.1736371198059;10.5589249466181
20594;Manhagen bei Lensahn;54.19505;10.9143
21485;Neukirchen bei Oldenburg in Holstein;54.32357;11.01893
21570;Neustadt in Holstein;54.10685;10.81353
22142;Oldenburg in Holstein;54.2916939035514;10.8867433692694
22819;Ratekau;53.94908;10.73622
23109;Riepsdorf;54.22568;10.96994
23627;Schashagen;54.1343;10.88321
23922;Schönwalde am Bungsberg;54.18761;10.75563
24261;Sierksdorf;54.06665;10.76888
24617;Stockelsdorf;53.88788;10.64507
24750;Süsel;54.07735;10.71555
24992;Timmendorfer Strand;53.99753;10.78062
25671;Wangels;54.27269;10.766056
23621;Scharbeutz;54.0352;10.7512
16452;Fehmarn;54.43555;11.19698
485;Pinneberg;53.727893877551;9.69795979591837
13710;Appen, Kreis Pinneberg;53.65964;9.74216
14109;Barmstedt;53.7893682107897;9.77226791126724
14442;Bevern, Holstein;53.7556509363528;9.77098447425361
14498;Bilsen;53.76965;9.87624
14692;Bönningstedt;53.66529;9.91382
14727;Bokel bei Elmshorn;53.8667154501489;9.73416726346494
14731;Bokholt-Hanredder;53.7880696688075;9.73618281228538
14807;Borstel-Hohenraden;53.68402;9.8061
14851;Brande-Hörnerkirchen;53.8551254141606;9.70513033922196
15164;Bullenkuhlen;53.7663981319767;9.74853639645572
16118;Ellerbek, Kreis Pinneberg;53.6572;9.86975
16120;Ellerhoop;53.7275101673501;9.77074508709904
16141;Elmshorn;53.7552973008561;9.65623957259651
17538;Groß Nordende;53.7019107420616;9.64959082348352
17542;Groß Offenseth-Aspern;53.8180035553392;9.73184702141281
17828;Halstenbek, Holstein;53.63411;9.8376
17936;Haselau;53.6617753339703;9.62006797237392
17940;Haseldorf;53.6343;9.59626
17948;Hasloh;53.69353;9.91165
18036;Heede bei Barmstedt;53.783780787891;9.80737869782444
18064;Heidgraben;53.7096681692393;9.67814293844705
18121;Heist;53.6549331787384;9.65669800682073
18129;Helgoland;54.1828640617142;7.8855991488266
18152;Hemdingen;53.7629243835983;9.83715926451679
18288;Hetlingen;53.60709;9.63723
18594;Holm, Kreis Pinneberg;53.62151;9.6715
19402;Klein Nordende;53.71136;9.64729
19404;Klein Offenseth-Sparrieshoop;53.8047876012666;9.69322656435962
19510;Kölln-Reisiek;53.7574101331;9.69775400118
19806;Kummerfeld bei Pinneberg;53.69326;9.79226
24144;Seester;53.7173828979577;9.59724058551787
19899;Langeln, Kreis Pinneberg;53.7949216188937;9.85263225777145
20515;Lutzhorn;53.8329953305018;9.76821576399799
21084;Moorrege bei Uetersen;53.6677402529403;9.65997231347566
21393;Neuendeich bei Uetersen;53.6745347819175;9.58815884931093
22219;Osterhorn;53.8668459324812;9.70164480860711
22460;Pinneberg;53.66282;9.79665
22642;Prisdorf;53.68212;9.76997
22712;Quickborn, Kreis Pinneberg;53.73186;9.90396
22721;Raa-Besenbek;53.7556081196572;9.61138901455398
22978;Rellingen;53.65161;9.82942
23659;Schenefeld bei Hamburg;53.60085;9.82257
24145;Seestermühe;53.7040542593132;9.56732657892703
24147;Seeth-Ekholt;53.7412596906038;9.73015052421089
24813;Tangstedt, Kreis Pinneberg;53.6777;9.85641
25031;Tornesch;53.6973296003241;9.71218419415956
25191;Uetersen;53.6934006954926;9.65420891685491
25758;Wedel;53.58367;9.69817
26035;Westerhorn;53.8524564197053;9.67877294178487
489;Plön;54.1591308763995;10.4112556338311
13760;Ascheberg (Holstein);54.1508969608122;10.3449319704826
14108;Barmissen;54.2050398276889;10.1753696967095
14119;Barsbek;54.4050867592085;10.3230090647937
14218;Behrensdorf (Ostsee);54.3503189074916;10.604865527153
14240;Belau bei Wankendorf;54.0986526033976;10.2605556015491
14267;Bendfeld;54.3669488826277;10.4205361962319
14596;Blekendorf;54.28224;10.65836
14689;Bönebüttel;54.07957;10.0593
14708;Bösdorf bei Plön;54.1401533602515;10.4899364556551
14733;Boksee;54.2431576781301;10.1300171032006
14817;Bothkamp;54.2035468948908;10.1342241480405
14991;Brodersdorf;54.3862106596134;10.2487472951413
15427;Dannau, Kreis Plön;54.2409577037115;10.5410953372717
15527;Dersau, Kreis Plön;54.1176487558431;10.3363038663387
15670;Dobersdorf, Holstein;54.3183126508236;10.2812731027603
15698;Dörnick;54.1631353952082;10.3619337145805
16415;Fahren, Holstein;54.3502641931476;10.3378113865853
16487;Fiefbergen;54.3793174147247;10.3430597990752
17016;Giekau;54.3180060109664;10.5051403254271
17325;Grebin;54.1980695425125;10.4937161266804
17410;Großbarkau;54.2250887703464;10.1675591040581
17473;Großharrie;54.11898;10.04895
18070;Heikendorf;54.3723325826753;10.2087811589242
18144;Helmstorf bei Lütjenburg;54.2886150877064;10.5964923411608
18435;Högsdorf;54.2519;10.61575
18443;Höhndorf;54.3713472684405;10.3707368433476
18505;Hohenfelde bei Kiel;54.3702654378341;10.4959210217
18572;Hohwacht (Ostsee);54.3204513980808;10.6709281380653
18637;Honigsee;54.2283689504467;10.1880377698869
19054;Kalübbe, Holstein;54.11826;10.28126
19259;Kirchbarkau;54.2119111247408;10.1411992325837
19307;Kirchnüchel;54.20375;10.68053
19349;Klamp;54.29636;10.53426
19354;Klausdorf / Kiel;54.3082189315693;10.2147724241018
19359;Klein Barkau;54.2211518488187;10.1346003278548
19435;Kletkamp;54.24958;10.63857
19507;Köhn;54.3455383535706;10.4551380336286
19708;Krokau;54.4026005017548;10.3416403591634
19742;Krummbek, Holstein;54.3785490147719;10.3993004769088
19769;Kühren bei Preetz;54.2018711807451;10.2604960411788
19840;Laboe;54.404259;10.221474
19873;Lammershagen, Holstein;54.2746130033627;10.4440013825894
20055;Lebrade;54.216738;10.421914
20077;Lehmkuhlen bei Preetz;54.2234815600116;10.3644041373785
20346;Löptin;54.17552;10.2157999999999
20475;Lütjenburg, Holstein;54.2920491150787;10.5901992082596
20513;Lutterbek;54.3912646577955;10.2765577793122
20687;Martensrade;54.2796290587768;10.3929817438126
21024;Mönkeberg;54.34873547997;10.1910175591708
21122;Mucheln;54.2464613433223;10.4427394032479
21314;Nehmten;54.0947518156827;10.3933839563846
21352;Nettelsee;54.17578;10.19231
22302;Panker;54.330405302489;10.5731049388648
22333;Passade;54.3648289245623;10.3166588157416
22507;Plön / Holstein;54.1600017261745;10.4108647018672
22550;Pohnsdorf bei Preetz;54.2396253724473;10.2492555737496
22584;Postfeld;54.2104961349701;10.2126353740693
22600;Prasdorf;54.3802562637343;10.2959488093854
22604;Preetz, Holstein;54.2328439233796;10.2705435961485
22648;Probsteierhagen;54.362274;10.286562
22768;Raisdorf;54.2798122749672;10.2436296403409
22806;Rantzau;54.237158878626;10.5153025448323
22817;Rastorf, Holstein;54.2724031142712;10.2888664364815
22823;Rathjensdorf;54.1849566930767;10.4313694800615
22996;Rendswühren;54.06571;10.1655900000001
23423;Ruhwinkel;54.0932842066322;10.2197343919992
23656;Schellhorn bei Preetz;54.2306286593897;10.2925786137581
23702;Schillsdorf;54.11678;10.12358
23749;Schlesen;54.3216456473495;10.3341166436672
23863;Schönberg (Holstein);54.3928077874459;10.3751887589694
23908;Schönkirchen, Holstein;54.339149417959;10.2225421130657
24025;Schwartbuck;54.3573172445686;10.4798887878657
24182;Selent, Holstein;54.2905415285635;10.427672764659
24461;Stakendorf;54.3890151470185;10.4210712969304
24510;Stein bei Laboe;54.4147079747742;10.2691422611476
24641;Stolpe bei Neumünster;54.1265922758671;10.223930708003
24648;Stoltenberg;54.3463831970097;10.3544162720442
25111;Tröndel;54.33683;10.51131
24833;Tasdorf;54.0953930913998;10.0294631000042
25526;Wahlstorf bei Preetz;54.195519754283;10.3087221592665
25678;Wankendorf;54.11254;10.20367
25702;Warnau bei Nettelsee;54.1878038886439;10.1613538135022
25943;Wendtorf;54.4108728715248;10.2955345273019
26295;Wisch bei Kiel;54.4089926501879;10.3452036738397
26328;Wittmoldt;54.1748118642804;10.3500159893751
16442;Fargau-Pratjau;54.318364278738;10.3774276137352
493;Rendsburg-Eckernförde;54.2791162650602;9.78865602409639
13378;Achterwehr;54.3134100505356;9.9659076839686
13418;Ahlefeld bei Rendsburg;54.4035;9.67931
13544;Alt Duvenstedt;54.36021;9.64559
13570;Altenhof bei Eckernförde;54.43539;9.87378
13571;Altenholz;54.4016457700682;10.1185690820218
13743;Arpsdorf;54.0394576466647;9.85890795631409
13762;Ascheffel;54.4308049913838;9.69823557040309
13818;Aukrug;54.0770835519113;9.78628124351979
14097;Bargstall;54.2591806138299;9.4601233317906
14099;Bargstedt, Holstein;54.1628386745617;9.76974810238169
14103;Barkelsby;54.5012194223;9.83571292758
14241;Beldorf;54.1314592535068;9.35181841397838
14269;Bendorf, Holstein;54.0872895980284;9.38288563787938
14345;Beringstedt;54.1107011285131;9.53487465853978
14559;Bissee;54.1906725239814;10.1104041203314
14564;Bistensee;54.39836;9.70171
14618;Blumenthal, Holstein;54.2260684158409;10.0029858708382
14679;Böhnhusen;54.2239373716;10.0552116111
14728;Bokel bei Rendsburg;54.2175615806827;9.79124350393373
14768;Bordesholm;54.1734274524028;10.0354430838879
14770;Borgdorf-Seedorf;54.1774425005624;9.87857140744285
14773;Borgstedt bei Rendsburg;54.3332892232079;9.70985911930148
14793;Bornholt, Holstein;54.1002834373528;9.3347728431225
14822;Bovenau;54.3295480172577;9.82895811498171
14846;Brammer bei Rendsburg;54.1997352124029;9.76427510524348
14884;Bredenbek bei Rendsburg;54.324768766539;9.8686970531941
14899;Breiholz;54.2060139946458;9.52350230967445
14934;Brekendorf;54.4216120082;9.62902384853
14981;Brinjahe;54.1683989678683;9.63207043166637
14989;Brodersby bei Kappeln, Schlei;54.6346665037;9.97967110872
15031;Brügge, Holstein;54.174187319375;10.0715697571094
15113;Büdelsdorf;54.31408;9.66324
15136;Bünsdorf;54.36693;9.73637
15299;Christiansholm;54.3204341896576;9.40680168712679
15376;Dänischenhagen;54.4245524172928;10.1276704877616
15377;Dätgen;54.181080433404;9.93373371804313
15409;Damendorf;54.4235236586372;9.73521049222564
15419;Damp;54.5822542146;10.0198961973
15701;Dörphof;54.616464077;9.96736781597
15946;Eckernförde;54.4707802668;9.83461322188
16008;Ehndorf;54.05245;9.89463
16075;Eisendorf, Holstein;54.1934415191013;9.86923128510074
16119;Ellerdorf;54.1930774566587;9.84013468170718
16146;Elsdorf-Westermühlen;54.2580903637385;9.52277632112981
16171;Embühren;54.1712934904089;9.5943076109457
16177;Emkendorf bei Rendsburg;54.2606194765741;9.8518655210734
16462;Felde, Holstein;54.2972792118201;9.92740236366335
16472;Felm;54.409974528291;10.057776144147
16528;Fleckeby;54.482358286172;9.69406674704169
16540;Flintbek;54.2453149102344;10.0722693413497
16558;Fockbek;54.3048270968409;9.60141942048613
16712;Friedrichsgraben;54.2715293039698;9.41932760322634
16714;Friedrichsholm;54.3039381695245;9.42753583336417
16814;Gammelby bei Eckernförde;54.5002086912298;9.79586261412715
17005;Gettorf;54.4069172040774;9.97400405108938
17119;Gnutz;54.1352764455121;9.8224971457775
17182;Gokels;54.1125436674202;9.46827242076398
17318;Grauel;54.0714455962366;9.67370759006024
17354;Grevenkrug;54.2133186047;10.0107620434
17427;Groß Buchwald;54.162083522502;10.08378654862
17596;Groß Vollstedt;54.234156474083;9.86765896821577
17602;Groß Wittensee;54.404634;9.769846
17651;Güby;54.4859065328657;9.66688449680038
17725;Haale;54.1741974918379;9.54838215764045
17734;Haby;54.3958076059489;9.82008951008325
17839;Hamdorf bei Rendsburg;54.2223398014835;9.5187770754099
17862;Hamweddel;54.1904975107403;9.61850247736454
17868;Hanerau-Hademarschen;54.1276326183113;9.41093886196615
17962;Haßmoor;54.2920146744653;9.81913787722593
18108;Heinkenborstel;54.131646058824;9.7508843498974
18460;Hörsten bei Rendsburg;54.2270015132436;9.57847982788638
18475;Hoffeld bei Bordesholm;54.1860694143786;9.99398686135355
18559;Hohenwestedt;54.0911316781334;9.6489895487261
18566;Hohn bei Rendsburg;54.2986464637591;9.50098477447573
18603;Holtsee;54.399064838759;9.85492000579839
18607;Holzbunge;54.38122;9.70925
18608;Holzdorf bei Eckernförde;54.5545898284;9.89657895565
18729;Hütten bei Ascheffel;54.4369993078842;9.71956114372825
18742;Hummelfeld;54.462603;9.718161
18907;Jahrsdorf, Holstein;54.0656195601616;9.63239754791738
18961;Jevenstedt;54.2323039909458;9.66402687275962
19091;Karby, Schwansen;54.6231730219;9.97479217052
19429;Klein Wittensee;54.390984;9.734832
19537;Königshügel;54.3352173961855;9.4691071212215
19617;Kosel bei Eckernförde;54.506653;9.754782
19707;Krogaspe;54.1317064580141;9.92878700848104
19718;Kronshagen;54.3314414549232;10.0852312356234
19751;Krummwisch;54.3351704141464;9.89756902158266
19967;Langwedel, Holstein;54.2117741043272;9.93090478623468
20258;Lindau bei Kiel;54.385024;9.904678
20360;Lohe-Föhrden;54.3341790804736;9.54446070039812
20392;Loop, Holstein;54.1479169388685;9.9492618247326
20393;Loose bei Eckernförde;54.5196078794;9.88896148204
20478;Lütjenwestedt;54.1407283475338;9.48901044284744
20495;Luhnstedt;54.1673276012344;9.69853818560199
17222;Goosefeld;54.43225;9.81165
20761;Meezen;54.0528439633348;9.7056500172186
20813;Melsdorf;54.3173160629321;10.0300869107247
20919;Mielkendorf;54.2846664242755;10.0406682252884
21030;Mörel bei Hohenwestedt;54.1124888716996;9.72631263311197
21059;Molfsee;54.2645626120845;10.0659111648799
21136;Mühbrook;54.157039032308;10.010167287236
21310;Negenharrie;54.16343;10.05421
21385;Neudorf-Bornstein;54.4321224268;9.94411976933
21387;Neu Duvenstedt;54.35545;9.69672
21584;Neuwittenbek;54.36841;10.02097
21718;Nienborstel;54.1421624756093;9.61841406996538
21744;Nindorf bei Neumünster;54.1310975762378;9.70147470708181
21760;Noer;54.4613803461;10.0052580416
21813;Nortorf bei Neumünster;54.168813001762;9.85476680243567
21828;Nübbel bei Rendsburg;54.272038;9.620339
22141;Oldenbüttel bei Hanerau-Hademarschen;54.1700278433076;9.45183316171171
22147;Oldenhütten;54.1578673083651;9.7375106322317
22193;Osdorf bei Kiel;54.427853538;10.0156757414
22204;Ostenfeld (Rendsburg);54.316529101277;9.78185584247118
22209;Osterby bei Eckernförde;54.4543533813167;9.7543031265459
22225;Osterrönfeld;54.2904264612821;9.69555040299898
22227;Osterstedt;54.11061;9.57374000000004
22247;Ottendorf bei Kiel;54.3402480875188;10.0444160610438
22279;Owschlag;54.3920166799978;9.6017544269485
22286;Padenstedt;54.04953;9.91733
22638;Prinzenmoor;54.2226455089987;9.45539660895423
22694;Quarnbek;54.3300305256973;9.98401125371462
22737;Rade bei Hohenwestedt;54.1024587456023;9.71676598067571
22738;Rade bei Rendsburg;54.3313624363921;9.74501885617319
22878;Reesdorf bei Kiel;54.1907855157943;10.0600516810471
22986;Remmels;54.1171056723625;9.65157623167325
22995;Rendsburg;54.3038030030323;9.66985793467046
23080;Rickert;54.3303301920324;9.66223783934656
23114;Rieseby;54.5416484135;9.81295901394
23183;Rodenbek bei Kiel;54.2761634572153;10.0178687781096
23427;Rumohr;54.2552618791485;10.0246098399163
23595;Schacht-Audorf;54.3125834773629;9.71555070634366
23687;Schierensee, Holstein;54.2565615854623;9.98529603183275
23708;Schinkel bei Gettorf;54.3558284603593;9.95605202615266
23780;Schmalstede;54.1957929400041;10.0272274776751
23855;Schönbek, Holstein;54.1618393217758;9.9789081528242
23906;Schönhorst, Holstein;54.2254656743553;10.104107634669
23965;Schülldorf;54.3004666327863;9.7291785985232
23968;Schülp bei Nortorf;54.163807805587;9.88635853076533
23969;Schülp bei Rendsburg;54.2595754281265;9.62945722187118
24052;Schwedeneck;54.4594282426545;10.0463452398778
24119;Seefeld bei Hanerau-Hademarschen;54.1016823859786;9.49296550750734
24156;Sehestedt, Eider;54.36678;9.81944
24328;Sören;54.2019262471777;9.99519452596251
24372;Sophienhamm;54.276286549169;9.46341574335638
24454;Stafstedt bei Rendsburg;54.1705305119486;9.66192799384879
24497;Steenfeld;54.1426838675212;9.3798627883196
24666;Strande, Holstein;54.4408932151081;10.1709284842015
24799;Tackesdorf;54.1645783949822;9.47135629057886
24826;Tappendorf;54.1046109023127;9.69105767782022
24855;Techelsdorf;54.2143098691;10.0469396785
24913;Thaden;54.1035640901133;9.42251460552217
24967;Thumby, Schwansen;54.5858265016;9.91003962159
24991;Timmaspe;54.1407938541764;9.89102485831262
25005;Todenbüttel;54.1295141652807;9.55810862357904
25139;Tüttendorf;54.3922268498189;9.99286400377759
25482;Waabs;54.5357955911;9.98806374073
25686;Wapelfeld;54.0847725482883;9.60844832237054
25690;Warder bei Neumünster;54.21272;9.88471
25723;Wasbek;54.07225;9.89598
25740;Wattenbek;54.1633304156415;10.0542400046642
26022;Westensee;54.2779628502139;9.89983012378222
26044;Westerrönfeld;54.280545285987;9.64324444675998
26222;Windeby;54.462724215;9.81717886329
26247;Winnemark;54.6178701610109;9.92786236362456
251;Schleswig-Flensburg;54.6310970149254;9.55597007462687
13535;Alt Bennebek;54.37778;9.43111
35741;Arnis;54.63036;9.93159
14318;Bergenhusen;54.3753533896918;9.31911625111643
14670;Böel, Angeln;54.6485531792;9.72130524969
14681;Böklund;54.6072526711112;9.58450581132602
14696;Börm bei Schleswig;54.39902;9.38119
14741;Bollingstedt;54.59279;9.410812
14769;Boren;54.61354;9.81795
14775;Borgwedel;54.49995;9.66568
14877;Brebel;54.6395977582;9.74003243303
14990;Brodersby bei Schleswig;54.53777;9.70644
15237;Busdorf bei Schleswig;54.49299;9.55207
15434;Dannewerk;54.4864355056769;9.50951325892635
15703;Dörpstedt bei Schleswig;54.43387;9.3626
15736;Dollrottfeld;54.64266;9.80914
16090;Ekenis;54.62712;9.85236
16129;Ellingstedt;54.4777100856322;9.4096391946001
16261;Erfde;54.308983;9.317646
16414;Fahrdorf;54.503539;9.601545
16922;Geltorf;54.4628673761871;9.61111198364921
17207;Goltoft;54.5456905535509;9.72218836745833
17389;Grödersby;54.6375739902;9.91713004112
17557;Groß Rheide;54.4426174338499;9.43331572412677
18010;Havetoft;54.6500210379881;9.51074712233555
18011;Havetoftloit;54.6622509537;9.56053900575
18590;Hollingstedt bei Schleswig;54.45704;9.33549
18724;Hüsby;54.50075;9.48829
18775;Idstedt;54.5821904924005;9.51176698505115
18902;Jagel bei Schleswig;54.4571229055269;9.53752356766887
18979;Jübek;54.5565;9.39044
19084;Kappeln, Schlei;54.6590711176;9.93132965564
19241;Kiesby;54.6208391303;9.81813031292
19351;Klappholz;54.6211546872352;9.53958082198333
19364;Klein Bennebek;54.40207;9.45647
19410;Klein Rheide;54.4505838765183;9.47660657762714
19721;Kropp bei Schleswig;54.4111537192168;9.51308327912517
20377;Loit;54.6113867309;9.69996023035
20406;Lottorf;54.4512045326934;9.56915418802924
20469;Lürschau;54.54125;9.49623
20763;Meggerdorf;54.3492153810583;9.3983554109389
21055;Mohrkirch;54.6755343043686;9.714544668786
21364;Neuberend;54.55602;9.52417
21780;Norderbrarup;54.65618;9.76847
21785;Norderstapel;54.3598054275344;9.24487203503195
21822;Nottfeld;54.6132954608;9.76207153797
22091;Oersberg;54.6746;9.8422
22726;Rabenkirchen-Faulück;54.649318;9.842479
23392;Rüde bei Satrup;54.8237551682;9.57608716488
23400;Rügge;54.6911601844054;9.76319390534587
23579;Satrup;54.6922598987;9.60367093837
23589;Saustrup;54.67437;9.76949
23594;Schaalby;54.54958;9.63958
23641;Scheggerott;54.66572;9.82115
23750;Schleswig;54.51808;9.57038
23818;Schnarup-Thumby;54.6469102479615;9.64482739822876
23963;Schuby bei Schleswig;54.51814;9.47986
24185;Selk;54.4724945137066;9.56663425265975
24282;Silberstedt;54.5180797040668;9.37611654544417
24547;Steinfeld bei Schleswig;54.6004655471;9.74733608818
24638;Stolk;54.5984334070517;9.54194250702094
24700;Struxdorf;54.6298870864891;9.64269303040516
24726;Süderbrarup;54.6361;9.78146
24730;Süderfahrenstedt;54.5852020944476;9.58766813575458
24739;Süderstapel;54.3498172502046;9.21741090858523
24794;Taarstedt;54.5688113360287;9.69003002247428
24897;Tetenhusen;54.351936141073;9.50052182375617
24987;Tielen bei Erfde;54.2858197465059;9.33203511083666
25019;Tolk;54.5776430917497;9.63920347647679
25073;Treia bei Schleswig;54.5174141334779;9.32249181116167
25182;Uelsby;54.6312207587719;9.59642492489826
25213;Ulsnis;54.5730281235394;9.74562819203948
25512;Wagersrott;54.66365;9.79519
26368;Wohlde bei Schleswig;54.4078686537129;9.29848939323965
25150;Twedt bei Schleswig;54.5973050154;9.67649626588
21829;Nübel bei Schleswig;54.5636361570043;9.58385746082877
24834;Tastrup bei Flensburg;54.7650937115;9.4772163039
13425;Ahneby;54.7078454381146;9.72852702438064
13830;Ausacker;54.7392898633;9.57490558779
14716;Böxlund;54.8369409422;9.17925482393
15733;Dollerup;54.7820700736;9.67668386102
15980;Eggebek;54.6202066718382;9.37919788062574
16336;Esgrus;54.7239204909599;9.77956476806827
16921;Gelting, Angeln;54.7462661395;9.89700274467
17106;Glücksburg (Ostsee);54.834154633012;9.54751448929308
17453;Großenwiehe;54.70321;9.24757999999997
17586;Großsolt;54.6998863153;9.51765785968
17638;Grundhof bei Flensburg;54.7732944236;9.65308802128
17865;Handewitt;54.7634057335;9.32490895545
17906;Harrislee;54.800799;9.386276
17953;Hasselberg, Ostsee;54.7142250874;9.97791426181
18461;Hörup;54.7412223171;9.1034363389
18599;Holt bei Medelby;54.8105287733;9.14853011966
18723;Hürup;54.7472356221;9.52964599287
18759;Husby bei Flensburg;54.7653488281;9.57612426877
18915;Janneby;54.6255648834504;9.30044353008272
18918;Jardelund;54.8250264622;9.20109873414
18939;Jerrishoe;54.6572493142976;9.37190319596957
18967;Jörl;54.6125690969401;9.27395629882049
19717;Kronsgaard;54.732243159;9.96288852691
19897;Langballig;54.7970142576;9.63691100533
19964;Langstedt;54.61677;9.38577
20521;Maasbüll bei Flensburg;54.7755911221;9.52410550714
20524;Maasholm;54.6831927657;9.9929346323
20751;Medelby;54.8134036887;9.17374020219
20903;Meyn;54.7576904174;9.2187015891
21220;Munkbrarup;54.8026425337;9.5637234584
21602;Nieby bei Gelting, Angeln;54.7716976266;9.93403868675
35742;Niesgrau;54.7427048442;9.81124715805
21789;Nordhackstedt;54.7333536067489;9.16705851597769
22106;Oeversee;54.7048841523;9.43578153904
22210;Osterby bei Medelby;54.797417487;9.21028440595
22567;Pommerby bei Gelting, Angeln;54.7565938359;9.93708567619
22706;Quern;54.7502224464;9.71675695777
22722;Rabel;54.6902577748;9.95020704269
22725;Rabenholz bei Gelting, Angeln;54.7220975156;9.90210832953
23142;Ringsberg;54.8067167835;9.59834413528
23606;Schafflund;54.7592307841351;9.18345473762185
24274;Sieverstedt;54.6440025419994;9.47862766938221
24331;Sörup;54.7171894363864;9.6696169972343
24340;Sollerup;54.56934;9.32096
24469;Stangheck;54.7103832676;9.8608908236
24527;Steinberg bei Flensburg;54.7641281323;9.80409102439
24530;Steinbergkirche;54.7544705921;9.76045684814
24601;Sterup;54.7277852739734;9.73927785797112
24647;Stoltebüll;54.702684402;9.87843783498
24732;Süderhackstedt;54.5924523417629;9.28966666757297
24831;Tarp;54.6644626885676;9.40599474310111
25635;Wallsbüll bei Flensburg;54.777277315;9.23481093645
25665;Wanderup;54.6880102531646;9.33558143930447
25765;Wees;54.807239;9.522599
25766;Weesby;54.8303564724;9.15327714681
26034;Westerholz bei Langballig;54.8163807567;9.67204051018
20278;Lindewitt;54.7003501494;9.20937286615
18920;Jarplund-Weding;54.7433859239;9.38503158147
23521;Sankelmark;54.7169084165;9.42510634716
16640;Freienwill bei Flensburg;54.7283936204;9.49240620291
254;Segeberg;53.9232287234043;10.1612311702128
13646;Alveslohe;53.78799;9.91512
13731;Armstedt;53.9711897939432;9.84708625133515
13882;Bad Bramstedt;53.9208930540248;9.88168272431375
13992;Bad Segeberg;53.938233;10.305231
14039;Bahrenhof, Holstein;53.8697843894955;10.3640316613769
14102;Bark bei Bad Segeberg;53.91057;10.18447
14172;Bebensee;53.87491;10.29856
14501;Bimöhlen;53.93581;9.95511
14620;Blunk;54.01071;10.31228
14763;Boostedt;54.0144;10.01972
14792;Bornhöved;54.069394048891;10.2264063869238
14806;Borstel bei Neumünster;53.9673377741042;9.79974190946103
15123;Bühnsdorf;53.88782;10.37289
15401;Daldorf;54.01691;10.2488
15421;Damsdorf, Kreis Segeberg;54.06488267093;10.3173398818254
15810;Dreggers;53.88508;10.34552
16117;Ellerau, Holstein;53.75121;9.9205
16417;Fahrenkrug;53.94491;10.25213
16561;Föhrden-Barl;53.9286219026486;9.78696587737084
16628;Fredesdorf;53.87509;10.20358
16769;Fuhlendorf bei Wiemersdorf;53.9436569547884;9.886770874815
16996;Geschendorf;53.92216;10.4402
17065;Glasau;54.0500795480504;10.5165544682313
17146;Gönnebek;54.04926;10.17811
17441;Großenaspe;53.9736276944796;9.96876324569624
17503;Groß Kummerfeld;54.05181;10.07338
17536;Groß Niendorf, Holstein;53.84545;10.24446
17562;Groß Rönnau;53.97226;10.31196
17756;Hagen bei Bad Bramstedt;53.9465198217561;9.82658411617757
17887;Hardebek;53.9884126357662;9.86934255118848
17916;Hartenholm;53.90016;10.05905
17943;Hasenkrug bei Brokstedt;53.9850684693661;9.84974297936441
17944;Hasenmoor;53.89977;9.97926
18066;Heidmoor, Holstein;53.86669;9.81725
18067;Heidmühlen, Holstein;53.9552;10.07751
18185;Henstedt-Ulzburg;53.79032;9.9803
18399;Hitzhusen;53.9231928262565;9.85223542209149
18434;Högersdorf;53.92068;10.2818600000001
18727;Hüttblek;53.84197;10.07338
35743;Itzstedt;53.807336;10.157515
19048;Kaltenkirchen, Holstein;53.83914;9.96024
19146;Kattendorf;53.84212;10.02379
19164;Kayhude;53.75761;10.13273
19334;Kisdorf, Holstein;53.80993;10.00841
19378;Klein Gladebrügge;53.91466;10.31771
19413;Klein Rönnau;53.96213;10.32085
19673;Krems II;53.98661;10.35549
19773;Kükels;53.89611;10.23812
19987;Latendorf;53.99568;10.06245
20068;Leezen, Holstein;53.86889;10.25097
20146;Lentföhrden;53.8730756931822;9.88565218997452
21027;Mönkloh;53.8893855875667;9.78687602336885
21052;Mözen;53.91121;10.26254
21248;Nahe;53.79118;10.13748
21311;Negernbötel;53.98209;10.24939
21313;Nehms;54.0249764893556;10.3580859895229
21406;Neuengörs;53.90101;10.38417
21590;Neversdorf;53.86453;10.28347
21786;Norderstedt;53.67359;9.9857
21838;Nützen;53.86537;9.91884
22088;Oering, Holstein;53.82428;10.15135
22092;Oersdorf bei Neumünster;53.84017;9.99358
22657;Pronstorf;53.9573;10.46835
23081;Rickling;54.00911;10.16284
23249;Rohlstorf, Holstein;53.96857;10.40755
23597;Schackendorf bei Bad Segeberg;53.95759;10.27068
23686;Schieren bei Bad Segeberg;53.94383;10.39153
23776;Schmalensee;54.0806894205797;10.2703832153797
23777;Schmalfeld;53.87711;9.98354
24098;Schwissel;53.89568;10.29341
24116;Seedorf bei Bad Segeberg;54.049826232241;10.4105681989908
24221;Seth, Holstein;53.84604;10.17496
24273;Sievershütten;53.84112;10.10627
24614;Stipsdorf;53.94179;10.33392
24622;Stocksee;54.0880944630816;10.341717234683
24696;Strukdorf;53.91966;10.48819
24699;Struvenhütten;53.86413;10.05925
24719;Stuvenborn;53.85178;10.12561
24741;Sülfeld;53.80106;10.22878
24827;Tarbek;54.05628;10.26568
24887;Tensfeld;54.0412210764855;10.3180888886929
25008;Todesfelde;53.8951907819038;10.1769376303002
25045;Trappenkamp;54.04086;10.21509
25055;Travenhorst;54.01923;10.45496
25056;Traventhal;53.89801;10.32043
25524;Wahlstedt;53.95291;10.21456
25540;Wakendorf I;53.86434;10.35603
25541;Wakendorf bei Henstedt-Ulzburg;53.78522;10.0842299999999
25754;Weddelbrook;53.9032835947486;9.8273995077181
25762;Weede;53.92202;10.37373
25950;Wensin;53.98113;10.40748
26043;Westerrade;53.93442;10.45598
26108;Wiemersdorf;53.957776789538;9.90459348316671
26258;Winsen bei Neumünster;53.83009;10.01116
26310;Wittenborn, Kreis Segeberg;53.9264;10.22408
257;Steinburg;53.9409342105263;9.51578956140351
13355;Aasbüttel;54.066624;9.440368
13403;Aebtissinwisch;53.970947;9.289993
13410;Agethorst;54.019467;9.435937
13580;Altenmoor;53.7590104019671;9.56618564676
13833;Auufer;53.923233;9.681892
14038;Bahrenfleth;53.871441;9.439896
14223;Beidenfleth;53.878354;9.414377
14237;Bekdorf bei Wilster;53.93769;9.423966
14238;Bekmünde;53.925025;9.446256
14406;Besdorf;54.050731;9.360748
14609;Blomesche Wildnis;53.805658;9.450798
14729;Bokelrehm;54.038089;9.386109
14732;Bokhorst bei Schenefeld;54.0589344820426;9.39510226249695
14804;Borsfleth;53.826715;9.430798
14912;Breitenberg bei Itzehoe;53.92437;9.637965
14916;Breitenburg;53.905752;9.568923
15000;Brokdorf, Holstein;53.861885;9.328287
15001;Brokstedt;53.991684;9.817088
15148;Büttel, Westholstein;53.900228;9.226957
15300;Christinenthal, Holstein;54.0499593741924;9.53224475260068
15374;Dägeling;53.878405;9.531152
15417;Dammfleth;53.908773;9.371519
15790;Drage bei Hohenaspe;54.003443;9.519824
15951;Ecklak;53.953656;9.262411
16150;Elskop;53.808782;9.477172
16207;Engelbrechtsche Wildnis;53.784638;9.462173
16520;Fitzbek;54.002623;9.769674
17107;Glückstadt;53.788403;9.423933
17353;Grevenkop;53.842107;9.529661
17356;Gribbohm;54.028687;9.347382
17741;Hadenfeld;54.033804;9.456263
18085;Heiligenstedten;53.93276;9.47465
18086;Heiligenstedtenerkamp;53.899874;9.468966
18181;Hennstedt bei Itzehoe;54.0289746398718;9.71813771183969
18270;Herzhorn, Holstein;53.790672;9.489478
18359;Hingstheide;53.907737;9.753026
18419;Hodorf;53.901429;9.429038
18486;Hohenaspe;53.989066;9.52774
18504;Hohenfelde bei Elmshorn;53.843905;9.621519
18523;Hohenlockstedt;53.968265;9.618966
18597;Holstenniendorf;54.04246;9.347339
18684;Horst (Holstein);53.811088;9.618279
18741;Huje;53.977224;9.43451
18888;Itzehoe;53.926752;9.5127
18998;Kaaks;53.990075;9.469738
19017;Kaisborstel;54.013794;9.481068
19185;Kellinghusen;53.951976;9.719642
19230;Kiebitzreihe;53.78266;9.617282
19443;Kleve bei Itzehoe;53.962648;9.408948
19588;Kollmoor bei Itzehoe;53.921262;9.600322
19667;Krempdorf;53.827779;9.466176
19668;Krempe, Holstein;53.836656;9.489853
19670;Kremperheide;53.88244;9.478867
19671;Krempermoor;53.875926;9.481055
19719;Kronsmoor bei Westermoor;53.9082;9.600129
19745;Krummendiek;53.946616;9.416584
19763;Kudensee;53.93006;9.21226
19848;Lägerdorf;53.886917;9.572172
19888;Landrecht;53.926017;9.398406
19893;Landscheide bei Sankt Margarethen;53.920693;9.252508
20319;Lockstedt, Holstein;54.004666;9.686634
20358;Lohbarbek;53.945788;9.63598
20391;Looft;54.028517;9.523064
20765;Mehlbek;54.004616;9.434583
21078;Moordiek bei Westermoor;53.91548;9.655944
21079;Moordorf bei Westermoor;53.902269;9.617602
21082;Moorhusen bei Wilster;53.960338;9.387064
21145;Mühlenbarbek;53.957753;9.667185
21198;Münsterdorf;53.901789;9.541524
21390;Neuenbrook, Holstein;53.859645;9.53322
21402;Neuendorf bei Elmshorn;53.73766;9.562851
21719;Nienbüttel bei Wacken;54.030571;9.415286
21814;Nortorf bei Wilster;53.926588;9.290363
21852;Nutteln, Holstein;53.989482;9.386506
22077;Oelixdorf;53.927577;9.558216
22093;Oeschebüttel;53.990365;9.72182
22140;Oldenborstel;54.061952;9.5127
22145;Oldendorf, Holstein;53.953409;9.458583
22246;Ottenbüttel;53.973661;9.506748
22356;Peissen, Holstein;54.024541;9.60868
22538;Pöschendorf;54.038927;9.490787
22596;Poyenberg;54.041491;9.690784
22681;Puls;54.0827963728801;9.51870429094125
22695;Quarnstedt bei Wrist;53.953826;9.784869
22736;Rade bei Fitzbek;54.00029;9.741717
22894;Reher, Holstein;54.067166;9.573073
23017;Rethwisch bei Lägerdorf;53.866472;9.591653
23288;Rosdorf, Holstein;53.978038;9.724715
23545;Sankt Margarethen;53.892186;9.253991
23560;Sarlhusen;54.024289;9.792192
23660;Schenefeld, Mittelholstein;54.046473;9.481399
23768;Schlotfeld;53.957396;9.582708
24275;Siezbüttel;54.052721;9.447425
24287;Silzen;54.02846;9.635177
24351;Sommerland;53.805874;9.534915
24629;Stördorf;53.910943;9.422129
24630;Störkathen;53.980347;9.756469
24725;Süderau;53.817454;9.514632
25324;Vaale, Holstein;53.998903;9.375863
25325;Vaalermoor;53.978051;9.331485
25496;Wacken;54.023306;9.377494
25710;Warringholz;54.079889;9.464331
26038;Westermoor, Holstein;53.914577;9.629191
26073;Wewelsfleth;53.844683;9.400815
26095;Wiedenborstel;54.043417;9.763559
26188;Willenscharen;54.009917;9.808926
26209;Wilster;53.922248;9.374704
26257;Winseldorf;53.94426;9.606298
26309;Wittenbergen bei Kellinghusen;53.933831;9.682313
26452;Wrist;53.933565;9.755877
26478;Wulfsmoor;53.911999;9.723974
19587;Kollmar;53.731552418089;9.4661808013916
35744;Neuendorf-Sachsenbande;53.961505;9.326956
21403;Neuendorf bei Wilster;53.961505;9.326956
23466;Sachsenbande bei Wilster;53.959757;9.350719
261;Stormarn;53.7215127272727;10.3586145454545
13435;Ahrensburg;53.67579;10.23845
13904;Badendorf, Holstein;53.86664;10.57859
13966;Bad Oldesloe;53.80803;10.37341
14095;Bargfeld-Stegen;53.76493;10.18198
14100;Bargteheide;53.7335;10.26927
14114;Barnitz, Trave;53.80564;10.49994
14120;Barsbüttel;53.56842;10.16282
14827;Braak bei Hamburg;53.608496;10.246749
15492;Delingsdorf;53.70839;10.25177
16135;Elmenhorst, Kreis Stormarn;53.7652;10.2635
17097;Glinde, Kreis Stormarn;53.540731;10.211394
17253;Grabau, Kreis Stormarn;53.80434;10.27367
17303;Grande;53.58243;10.3871799999999
17396;Grönwohld, Kreis Stormarn;53.64191;10.408733
17449;Großensee, Kreis Stormarn;53.61409;10.34093
17472;Großhansdorf;53.66805;10.28535
17833;Hamberge, Holstein;53.83821;10.57752
17843;Hamfelde in Holstein (Kreis Stormarn);53.60363;10.45336
17860;Hammoor bei Ahrensburg;53.71357;10.3196399999999
18051;Heidekamp;53.8542;10.50096
18092;Heilshoop;53.88637;10.5303
18503;Hohenfelde, Kreis Stormarn;53.63055;10.47338
18574;Hoisdorf;53.65303;10.32755
18940;Jersbek;53.74119;10.2218
19427;Klein Wesenberg;53.81088;10.54527
19565;Köthel (Stormarn);53.61075;10.51186
20477;Lütjensee;53.65066;10.36402
20749;Meddewade;53.8096;10.43967
21026;Mönkhagen;53.89951;10.55805
21342;Neritz bei Bad Oldesloe;53.78573;10.2846999999999
21731;Nienwohld;53.78638;10.1932
22244;Oststeinbek;53.54221;10.16569
22532;Pölitz, Kreis Stormarn;53.77368;10.38221
22848;Rausdorf, Kreis Stormarn;53.58935;10.32912
22897;Rehhorst, Holstein;53.87567;10.47022
22950;Reinbek;53.51072;10.24831
22952;Reinfeld (Holstein);53.82494;10.49315
23016;Rethwisch, Kreis Stormarn;53.78185;10.44231
23408;Rümpel;53.78294;10.35188
24257;Siek, Kreis Stormarn;53.63506;10.29736
24471;Stapelfeld, Bezirk Hamburg;53.60558;10.21993
24814;Tangstedt, Kreis Stormarn;53.73188;10.08447
25006;Todendorf, Kreis Stormarn;53.69398;10.3446
25076;Tremsbüttel;53.74262;10.31089
25103;Trittau;53.61096;10.40473
26023;Westerau, Holstein;53.77868;10.49193
26335;Witzhave;53.56718;10.33448
26536;Zarpen;53.87051;10.51826
15050;Brunsbek;53.59509;10.26694
19980;Lasbek, Kreis Stormarn;53.73391;10.36571
13659;Ammersbek;53.69804;10.18371
24534;Steinburg, Kreis Stormarn;53.69177;10.39204
25054;Travenbrück;53.83228;10.30751
16463;Feldhorst;53.8514164319161;10.4191360727493
26004;Wesenberg, Holstein;53.8334997564433;10.5332127445221
526;Freie und Hansestadt Hamburg;53.554423;9.994583
17838;Hamburg;53.554423;9.994583
26781;Hamburg-Insel Neuwerk;53.9202461974773;8.5002545095253
26714;Allermöhe;53.48774;10.11708
26715;Alsterdorf;53.6108;10.0131
26716;Altengamme;53.4306;10.2678
26717;Altenwerder;53.5047;9.92056
26718;Altona-Altstadt;53.5503;9.93528
26719;Altona-Nord;53.5614;9.94472
26720;Bahrenfeld;53.5697;9.90917
26721;Barmbek-Nord;53.5961;10.0511
26722;Barmbek-Süd;53.5796;10.03838
26723;Bergedorf;53.4829909938915;10.2175161163329
26724;Bergstedt;53.6672;10.1306
26725;Billbrook;53.52336;10.0862999999999
26726;Billstedt;53.5411;10.1242
26727;Billwerder;53.5069;10.1256
26728;Blankenese;53.5575;9.80306
26729;Borgfelde;53.55406;10.03338
26730;Bramfeld;53.6122;10.0886
26731;Cranz;53.5364;9.77972
26732;Curslack;53.45296;10.23222
26733;Dulsberg;53.5825;10.0625
26734;Duvenstedt;53.71071;10.10577
26735;Eidelstedt;53.60702;9.90631
26736;Eilbek;53.5661;10.0475
26737;Eimsbüttel;53.5725;9.94972
26738;Eißendorf;53.45627;9.95478
26739;Eppendorf;53.5892;9.98139
26740;Farmsen-Berne;53.6081;10.1272
26741;Finkenwerder;53.5303;9.86889
26742;Francop;53.5075;9.85444
26743;Fuhlsbüttel;53.6289;10.0161
26744;Groß Borstel;53.6086;9.98694
26745;Groß Flottbek;53.5658;9.87944
26747;Hamburg-Altstadt;53.5453;9.99528
26749;Hamm-Mitte;53.5531;10.0511
26750;Hamm-Nord;53.5603;10.0511
26751;Hamm-Süd;53.5486;10.0511
26748;Hammerbrook;53.54464;10.0280700000001
26752;Harburg;53.4592;9.98056
26753;Harvestehude;53.57765;9.98801
26754;Hausbruch;53.47085;9.88847
26755;Heimfeld;53.46392;9.95634
26756;Hoheluft-Ost;53.5828;9.98083
26757;Hoheluft-West;53.5808;9.96833
26758;Hohenfelde;53.5628;10.0264
26759;Horn;53.55421;10.08957
26760;Hummelsbüttel;53.6539;10.0486
26761;Iserbrook;53.5781;9.82806
26762;Jenfeld;53.5772;10.1281
26763;Kirchwerder;53.4397;10.1719
26764;Kleiner Grasbrook;53.5297;9.98833
26765;Klostertor;53.54656;10.0141
26766;Langenbek;53.4328;9.99083
26767;Langenhorn;53.66565;10.00129
26768;Lemsahl-Mellingstedt;53.67351;10.09503
26769;Lohbrügge;53.5089;10.1983
26770;Lokstedt;53.6031;9.95639
26771;Lurup;53.5939;9.87417
26772;Marienthal;53.5594;10.0858
26773;Marmstorf;53.4339;9.95889
26746;Gut Moor;53.4508;10.0186
26774;Moorburg;53.4883;9.93028
26775;Moorfleet;53.5092;10.0828
26776;Neuenfelde;53.5217;9.80028
26777;Neuengamme;53.4456;10.2211
26778;Neugraben-Fischbek;53.4772;9.84583
26779;Neuland;53.4672;10.0297
26780;Neustadt;53.5497;9.97944
26782;Niendorf;53.6186;9.96111
26783;Nienstedten;53.55471;9.8446
26784;Ochsenwerder;53.4719;10.0942
26785;Ohlsdorf;53.6219;10.0411
26786;Osdorf;53.5736;9.85222
26787;Othmarschen;53.55266;9.89393
26788;Ottensen;53.55356;9.91829
26789;Poppenbüttel;53.6564;10.0742
26790;Rahlstedt;53.6072;10.1606
26791;Reitbrook;53.4683;10.1444
26792;Rissen;53.5847;9.75639
26795;Rönneburg;53.4319;10.0094
26793;Rothenburgsort;53.5356;10.0369
26794;Rotherbaum;53.5694;9.98528
26796;Sasel;53.6522;10.1169
26797;Schnelsen;53.6364;9.93056
26798;Sinstorf;53.4208;9.9875
26799;Spadenland;53.4814;10.0664
26800;Sankt Georg;53.5564;10.0144
26801;Sankt Pauli;53.55648;9.9644
26802;Steilshoop;53.6158;10.0572
26803;Steinwerder;53.5392;9.96139
26804;Stellingen;53.59216;9.92877
26805;Sülldorf;53.5856;9.79889
26806;Tatenberg;53.4936;10.0797
26807;Tonndorf;53.5869;10.1175
26808;Uhlenhorst;53.5714;10.0189
26809;Veddel;53.5281;10.0217
26810;Volksdorf;53.6497;10.1842
26811;Waltershof;53.5292;9.92139
26812;Wandsbek;53.5794;10.0864
26813;Wellingsbüttel;53.6431;10.0897
26814;Wilhelmsburg;53.4978;10.0189
26815;Wilstorf;53.4436;9.98417
26816;Winterhude;53.5953;10.0122
26817;Wohldorf-Ohlstedt;53.7019;10.1306
324;Braunschweig;52.26901;10.52597
14871;Braunschweig;52.26902;10.5259599999999
334;Salzgitter;52.14965;10.33671
23496;Salzgitter;52.14978;10.33673
35699;Bad;52.0492;10.3719
35700;Barum;52.1211;10.4222
35701;Beddingen;52.1825;10.4236
35702;Beinum;52.0750131885152;10.4119643730164
35703;Bleckenstedt;52.177806579063;10.4066785423279
35704;Bruchmachtersen;52.14139;10.31332
35705;Calbecht;52.09132;10.38125
35706;Drütte;52.1531;10.4439
35707;Engelnstedt;52.1692;10.3539
35708;Engerode;52.08903;10.37269
35709;Flachstöckheim;52.0856;10.4392
35710;Gebhardshagen;52.10569;10.35947
35711;Gitter;52.0358;10.3531
35712;Groß Mahner;52.0514;10.4094
35713;Hallendorf;52.1542;10.3792
35714;Heerte;52.12482;10.38886
35715;Hohenrode;52.0244;10.3486
35716;Immendorf;52.1461;10.4428
35729;Lebenstedt;52.15665;10.3232399999999
35717;Lesse;52.1606;10.2569
35718;Lichtenberg;52.1269246147465;10.2904078677368
35719;Lobmachtersen;52.10157;10.42471
35720;Ohlendorf;52.0619;10.4464
35721;Osterlinde;52.1286;10.2492
35722;Reppner;52.17336;10.30831
35723;Ringelheim;52.0369111967591;10.3092708465576
35724;Salder;52.1356;10.3356
35725;Sauingen;52.1892;10.4122
35726;Thiede;52.1881;10.4786
35727;Üfingen;52.2006;10.4111
35728;Watenstedt;52.1461;10.4072
338;Wolfsburg;52.43788;10.7663700000001
26395;Wolfsburg;52.43788;10.7663700000001
565;Gifhorn;52.5264195121951;10.6081292682927
13395;Adenbüttel;52.3819389272831;10.4525587460328
14134;Barwedel;52.52131;10.77526
14321;Bergfeld, Niedersachsen;52.54486;10.8495399999999
14730;Bokensdorf;52.4979;10.72855
15003;Brome, Niedersachsen;52.6005;10.93559
15263;Calberlah;52.4240572373818;10.6215741693115
15468;Dedelstorf;52.715319807089;10.5128592486573
16011;Ehra-Lessien;52.5836001813399;10.7830913543701
17033;Gifhorn;52.47827;10.54901
17541;Groß Oesingen;52.64779;10.4635
17872;Hankensbüttel;52.72849;10.60392
18336;Hillerse, Kreis Gifhorn;52.41301;10.4039
18871;Isenbüttel;52.43677;10.57677
18929;Jembke;52.5002090011535;10.763653010559
20092;Leiferde, Kreis Gifhorn;52.44024;10.43294
20782;Meine;52.38489;10.5385
20783;Meinersen;52.47241;10.36015
21133;Müden (Aller);52.52592;10.3634099999999
21956;Obernholz;52.75031;10.62037
22194;Osloß;52.4711;10.68229
22323;Parsau;52.53595;10.8879400000001
23075;Ribbesbüttel;52.4336139767684;10.509490222168
23230;Rötgesbüttel;52.41594;10.53048
23402;Rühen;52.48801;10.8873100000001
23572;Sassenburg;52.51546;10.63084
23890;Schönewörde;52.6316330290829;10.6267768676757
24102;Schwülper;52.3562647621326;10.4319696243288
24420;Sprakensehl;52.766012599175;10.4893262698364
24565;Steinhorst, Niedersachsen;52.68916;10.4035699999999
24825;Tappenbeck;52.47207;10.7393999999999
24974;Tiddische;52.51781;10.80661
25133;Tülau;52.57716;10.87727
25219;Ummern;52.58854;10.4414899999999
25477;Vordorf, Kreis Gifhorn;52.365384462644;10.5203749841309
25511;Wagenhoff;52.5523301;10.5237500000001
25530;Wahrenholz;52.61589;10.59843
25724;Wasbüttel;52.41263;10.59272
26006;Wesendorf, Niedersachsen;52.592883474115;10.5346303756714
26077;Weyhausen, Kreis Gifhorn;52.46203;10.71976
26322;Wittingen, Niedersachsen;52.72888;10.7352100000001
15567;Didderse;52.38089;10.40254
573;Göttingen;51.5316103448276;10.014374137931
13383;Adelebsen;51.5806701;9.75397999999996
14499;Bilshausen;51.6300215278194;10.1581169311523
14657;Bodensee;51.60591;10.13096
14823;Bovenden;51.59004;9.93277999999998
15124;Bühren bei Göttingen;51.4849569334176;9.68118423278815
15798;Dransfeld;51.50048;9.76157000000001
15855;Duderstadt, Niedersachsen;51.51214;10.25162
15906;Ebergötzen;51.5711813997642;10.1073444549561
16704;Friedland, Kreis Göttingen;51.42027;9.91304000000002
17014;Gieboldehausen;51.60706;10.21925
17083;Gleichen, Kreis Göttingen;51.4617527165295;10.0388988885497
17176;Göttingen;51.53738;9.92923999999994
18984;Jühnde;51.46301;9.79786999999999
19657;Krebeck;51.58836;10.12105
19887;Landolfshausen;51.53966;10.1034099999999
17874;Hann. Münden;51.4201;9.65547000000004
21717;Niemetal;51.5012402884992;9.71548912170397
21952;Obernfeld;51.55548;10.23285
23073;Rhumspringe;51.58224;10.30022
23269;Rollshausen, Eichsfeld;51.57172;10.2149400000001
23287;Rosdorf;51.50584;9.90407000000005
23396;Rüdershausen, Eichsfeld;51.58022;10.26805
23637;Scheden;51.45866;9.72702000000004
24113;Seeburg, Niedersachsen;51.56507;10.14737
24226;Seulingen;51.5412407444944;10.1631128836059
24484;Staufenberg, Niedersachsen;51.34984;9.59798999999998
25483;Waake, Kreis Göttingen;51.55651;10.05583
26408;Wollbrandshausen;51.5870598311647;10.1609064285278
26409;Wollershausen;51.59715;10.25323
569;Goslar;51.90839;10.44638
13549;Altenau, Harz;51.8026007674846;10.446395111084
13922;Bad Harzburg;51.8998;10.5622
13923;Bad Harzburg;51.8831;10.5644
14423;Bettingerode;51.9029;10.5655
15134;Bündheim;51.89801;10.5473500000001
17177;Göttingerode;51.8991;10.5182
17900;Harlingerode;51.90835;10.52208
23754;Schlewecke bei Bad Harzburg;51.8995;10.5378
26041;Westerode, Nordharz;51.9027;10.56215
15949;Eckertal;51.9002;10.6518
15135;Bündheim / Schlewecke;51.89887;10.54315
14867;Braunlage;51.72513;10.61041
15304;Clausthal-Zellerfeld;51.8093939012619;10.3399089630127
17235;Goslar;51.90839;10.4468091534424
17236;Altstadt;51.91773;10.42704
17770;Hahndorf;51.9547;10.4353
17772;Hahnenklee-Bockswiese;51.8579;10.3399
18942;Jerstedt;51.9585;10.3895
22135;Oker;51.9066;10.4846
17765;Hahausen;51.94775;10.21849
19901;Langelsheim;51.93581;10.3324700000001
20208;Liebenburg;52.0232495641202;10.4302589416504
20512;Lutter am Barenberge;51.9896430339885;10.2677299682618
23524;Sankt Andreasberg;51.71323;10.5168
23977;Schulenberg im Oberharz;51.8356867010853;10.433471661377
24142;Seesen, Harz;51.8894;10.17725
25390;Vienenburg;51.95167;10.55764
25634;Wallmoden;52.0121569971734;10.2620651428223
26163;Wildemann;51.82898;10.28248
321;Helmstedt;52.2390961538462;10.9185961538462
14035;Bahrdorf, Niedersachsen;52.38511;10.99917
14227;Beierstedt;52.0736143339601;10.8579478994751
15112;Büddenstedt;52.17141;11.01955
15428;Danndorf, Niedersachsen;52.42641;10.91557
16658;Frellstedt;52.20487;10.91511
17010;Gevensleben;52.07636;10.82334
17285;Grafhorst;52.44374;10.9452200000001
17314;Grasleben;52.30585;11.0158300000001
17592;Groß Twülpstedt;52.3671192675583;10.9166141693115
18143;Helmstedt;52.22944;11.00902
18834;Ingeleben;52.10619;10.87364
18943;Jerxheim;52.0835109765412;10.9001502037048
19539;Königslutter am Elm;52.25248;10.8140100000001
20082;Lehre;52.32713;10.66893
20621;Mariental bei Helmstedt;52.30139;10.97645
22704;Querenhorst;52.33671;10.9622400000001
22752;Räbke;52.1950943288754;10.8799957989502
22999;Rennau;52.2960632410093;10.9112497512817
23907;Schöningen;52.13791;10.96572
24325;Söllingen, Niedersachsen;52.0916591822496;10.926090222168
24748;Süpplingen, Kreis Helmstedt;52.22786;10.90506
24749;Süpplingenburg;52.25043;10.91227
25151;Twieflingen;52.1256;10.91743
25366;Velpke, Niedersachsen;52.4073561006026;10.940272883606
25687;Warberg, Kreis Helmstedt;52.18098;10.9206
26420;Wolsdorf, Kreis Helmstedt;52.1890856143246;10.941259560852
343;Northeim;51.734725;9.8777725
13917;Bad Gandersheim;51.870662;10.024588
14652;Bodenfelde;51.63971;9.55738999999994
15448;Dassel, Solling;51.80087;9.68829000000005
16059;Einbeck;51.82072;9.86814000000004
17888;Hardegsen;51.65279;9.82824000000005
19031;Kalefeld;51.7981422170856;10.0333858306885
19145;Katlenburg-Lindau;51.6665619223282;10.1130454232788
19660;Kreiensen;51.8539;9.96584000000007
21099;Moringen;51.69903;9.8691
21762;Nörten-Hardenberg;51.62582;9.93538999999998
21811;Northeim;51.7005131180301;9.99606332275391
25305;Uslar;51.66051;9.63797999999997
347;Osterode am Harz;51.690625;10.3411375
13921;Bad Grund (Harz);51.80965;10.2375099999999
13950;Bad Lauterberg im Harz;51.62533;10.4615
13978;Bad Sachsa;51.5968435140671;10.5559258306885
13907;Badenhausen, Harz;51.7693558024372;10.2070869628906
16067;Eisdorf, Harz;51.7608566846039;10.1752830688476
16096;Elbingerode, Niedersachsen;51.65898;10.27799
17055;Gittelde;51.7975;10.18756
17971;Hattorf am Harz;51.6488;10.23834
18263;Herzberg am Harz;51.6517945904597;10.3375441693115
18449;Hörden am Harz;51.66838;10.28361
22222;Osterode am Harz;51.72975;10.25836
25606;Walkenried;51.58813;10.6129100000001
26092;Wieda;51.6302;10.5836
26231;Windhausen, Harz;51.78601;10.21142
26479;Wulften am Harz;51.66215;10.17633
26658;Zorge;51.61504;10.6244
352;Peine;52.32032;10.24337
15957;Edemissen bei Peine;52.3874;10.2584899999999
18514;Hohenhameln;52.25927;10.06663
18811;Ilsede;52.26397;10.2066
19862;Lahstedt;52.24308;10.22012
20130;Lengede;52.20645;10.31241
22353;Peine;52.3203686955316;10.2434337619018
25345;Vechelde;52.260784;10.372775
25930;Wendeburg;52.32555;10.38762
356;Wolfenbüttel;52.16423;10.5403200000001
13372;Achim, Kreis Wolfenbüttel;52.06005;10.61132
13888;Baddeckenstedt;52.0861480991576;10.2326133544921
14704;Börßum;52.06909;10.5818899999999
15181;Burgdorf bei Salzgitter;52.1440458793642;10.2175295608521
15334;Cramme;52.11315;10.44641
15338;Cremlingen;52.24728;10.65189
15388;Dahlum;52.133458055169;10.8499785423279
15513;Denkte;52.1461636650399;10.6085258624267
15548;Dettum;52.17132;10.6655900000001
15777;Dorstadt;52.09813;10.56487
16091;Elbe;52.0831681391553;10.2830425079346
16274;Erkerode;52.20472;10.7102
16404;Evessen;52.1904247649893;10.715000439148
16547;Flöthe;52.0828516715384;10.4831283386229
17017;Gielde;52.03762;10.4931
18009;Haverlah;52.0535070828071;10.3283218200684
18031;Hedeper;52.06578;10.68088
18039;Heere;52.066713190967;10.2498927116394
18107;Heiningen bei Wolfenbüttel;52.0701;10.55605
18669;Hornburg, Kreis Wolfenbüttel;52.03123;10.60537
19336;Kissenbrück;52.11041;10.58869
19485;Kneitlingen;52.17488;10.7621799999999
22134;Ohrum;52.11914;10.56367
22984;Remlingen, Kreis Wolfenbüttel;52.11355;10.67399
23268;Roklum;52.0674386881499;10.7411964233398
23721;Schladen;52.01991;10.54692
23925;Schöppenstedt;52.14519;10.77522
24157;Sehlde bei Salzgitter;52.03947;10.26805
24198;Semmenstedt;52.0941735598553;10.6977684020997
24237;Sickte;52.2165948269459;10.63703956604
25180;Uehrde;52.09919;10.76433
25329;Vahlberg bei Schöppenstedt;52.1334317126798;10.7166570846557
25369;Veltheim (Ohe);52.21862;10.68242
25974;Werlaburgdorf;52.05139;10.5357799999999
26252;Winnigstedt;52.06681;10.76665
26327;Wittmar;52.13088;10.64203
26382;Wolfenbüttel, Niedersachsen;52.1641770399212;10.5403770846558
568;Region Hannover;52.3844936156149;9.72700752380365
17873;Hannover;52.38447;9.72693000000004
14122;Barsinghausen;52.2966;9.48058000000003
15180;Burgdorf, Kreis Hannover;52.44724;10.00535
15218;Burgwedel;52.52975;9.79805999999996
16828;Garbsen;52.43648;9.60527999999999
16885;Gehrden / Hannover;52.31227;9.60063000000002
18160;Hemmingen / Hannover;52.3220822491819;9.72986203704841
18874;Isernhagen;52.47837;9.80134999999996
19837;Laatzen bei Hannover;52.30854;9.80900999999994
19930;Langenhagen, Hannover;52.4480121821382;9.74497890472412
20084;Lehrte bei Hannover;52.3751;9.97721999999999
21559;Neustadt am Rübenberge;52.50378;9.44978000000003
22340;Pattensen bei Hannover;52.26528;9.76134999999999
23278;Ronnenberg;52.3183264778189;9.65459194183347
24139;Seelze;52.39501;9.59397000000001
24162;Sehnde;52.31756;9.96745999999996
24426;Springe, Deister;52.21091;9.55329000000006
25195;Uetze;52.4645902029321;10.2031554232788
25759;Wedemark;52.5474686649829;9.74573253448489
25947;Wennigsen (Deister);52.27729;9.57301000000007
26487;Wunstorf;52.4213301;9.43474
360;Diepholz;52.6886574468085;8.69468063829787
13407;Affinghausen;52.78504;8.87553000000003
13767;Asendorf bei Bruchhausen-Vilsen;52.77271;9.00443999999993
14037;Bahrenborstel;52.57099;8.80984999999998
14091;Barenburg bei Sulingen;52.61946;8.80119999999999
14117;Barnstorf, Kreis Diepholz;52.7066;8.49793
14133;Barver;52.6109948779896;8.58667959259037
14143;Bassum;52.85034;8.7287
14805;Borstel bei Sulingen;52.67066;8.97023999999999
14987;Brockum;52.46841;8.42044999999996
15012;Bruchhausen-Vilsen;52.82809;8.99185999999997
15563;Dickel, Kreis Diepholz;52.64352;8.47609999999997
15593;Diepholz;52.60584;8.37071000000003
15803;Drebber;52.6509;8.42286999999999
15825;Drentwede;52.7463;8.57465000000002
16014;Ehrenburg bei Sulingen;52.74647;8.70609000000002
16208;Engeln bei Bruchhausen-Vilsen;52.79121;8.91912000000002
16408;Eydelstedt;52.7153;8.52462000000003
16655;Freistatt bei Sulingen;52.6245;8.65116
18167;Hemsloh;52.6017613605337;8.51072915344241
18704;Hüde bei Diepholz;52.495059;8.356695
19271;Kirchdorf bei Sulingen;52.59617;8.83703000000003
20123;Lembruch;52.52582;8.36567000000002
20124;Lemförde;52.46457;8.37473999999997
20523;Maasen;52.69055;8.88669000000004
20672;Marl, Dümmer;52.48445;8.36538999999993
20688;Martfeld;52.87642;9.06273999999996
20808;Mellinghausen;52.70582;8.89922999999999
21416;Neuenkirchen bei Bassum;52.77616;8.75220999999999
22707;Quernheim bei Diepholz;52.46308;8.39467999999999
22892;Rehden, Kreis Diepholz;52.60924;8.47892000000002
23929;Scholen bei Sulingen;52.73968;8.76799000000005
23997;Schwaförden;52.73773;8.81852000000003
24023;Schwarme;52.89734;9.01856999999995
24246;Siedenburg;52.69184;8.94102999999996
24453;Staffhorst;52.7202379824926;8.97814755554191
24591;Stemshorn;52.45461;8.35992999999996
24714;Stuhr;53.0293771310114;8.73678207397461
24723;Sudwalde;52.7959521452905;8.84107360839846
24752;Süstedt;52.86168;8.92160000000001
24758;Sulingen;52.68331;8.81092999999998
24789;Syke;52.91286;8.81781999999998
25154;Twistringen;52.79709;8.63827000000003
25341;Varrel bei Sulingen;52.62134;8.73387
25509;Wagenfeld;52.54801;8.58950000000004
25778;Wehrbleck;52.631484178583;8.6907412857056
26060;Wetschen;52.61223;8.44927000000007
26078;Weyhe bei Bremen;52.98285;8.85421999999994
564;Hameln-Pyrmont;52.0895875;9.3875
13404;Aerzen;52.04793;9.26021000000003
13957;Bad Münder am Deister;52.1996701;9.46638000000007
13970;Bad Pyrmont;51.98679;9.25214000000005
15325;Coppenbrügge;52.11779;9.54615000000001
16188;Emmerthal, Niedersachsen;52.04615;9.38564999999994
17840;Hameln;52.10887;9.36589000000004
18284;Hessisch Oldendorf;52.17203;9.24576000000002
23498;Salzhemmendorf;52.0664361798423;9.58847984130853
572;Hildesheim;52.06208;9.89374925
13397;Adenstedt bei Alfeld, Leine;52.0007;9.93519000000003
13487;Alfeld (Leine);51.9836964659436;9.83315833862298
13493;Algermissen;52.25278;9.97044000000005
13519;Almstedt;52.03265;9.96228999999994
13980;Bad Salzdetfurth;52.05813;10.0106900000001
14082;Banteln;52.0673067804479;9.7525749206543
14416;Betheln;52.11224;9.79128000000003
14640;Bockenem;52.00976;10.13298
15033;Brüggen, Leine;52.04074;9.77898000000005
15534;Despetal;52.0835205436702;9.84237629119866
15579;Diekholzen;52.09382;9.91619000000003
15908;Eberholzen;52.0542;9.85257999999999
16053;Eime;52.0731;9.72343000000001
16167;Elze, Leine;52.12122;9.73824000000002
16401;Everode;51.95003;9.91503999999998
16626;Freden (Leine);51.92862;9.89720999999997
17027;Giesen bei Hildesheim;52.19623;9.89615000000003
17402;Gronau (Leine);52.08511;9.78341
17884;Harbarnsen;51.99091;9.95861000000002
17914;Harsum;52.20968;9.96167000000003
18328;Hildesheim;52.14135;9.96602000000007
18580;Holle bei Hildesheim;52.0885741143362;10.1587547302246
19878;Lamspringe;51.96084;10.01181
19896;Landwehr bei Alfeld, Leine;51.9192765333646;9.97696702117923
21466;Neuhof bei Hildesheim;51.9803;10.03287
21804;Nordstemmen;52.16312;9.78845000000001
23053;Rheden;52.05801;9.78710999999998
23564;Sarstedt;52.23726;9.85436000000004
23655;Schellerten;52.18731;10.10231
24158;Sehlem, Niedersachsen;52.01138;9.97483
24234;Sibbesse;52.05424;9.90237000000002
24321;Söhlde;52.189192740531;10.2322475238038
26049;Westfeld bei Alfeld, Leine;52.04222;9.91310999999996
26279;Winzenburg;51.93778;9.93839000000003
26427;Woltershausen;51.97364;9.95758000000001
15326;Coppengrave;51.98602;9.72438
15882;Duingen;52.00522;9.69731000000002
18694;Hoyershausen;52.01921;9.75323000000003
20616;Marienhagen bei Alfeld, Leine;52.03701;9.68651999999997
25764;Weenzen;52.02089;9.67231000000004
576;Holzminden;51.890109375;9.5421871875
13727;Arholzen;51.8666;9.57041000000004
14441;Bevern, Kreis Holzminden;51.8574;9.49436000000003
14658;Bodenwerder;51.97991;9.50916000000007
14717;Boffzen;51.7319297182521;9.448346746521
14962;Brevörde;51.9121468496109;9.42988792602546
15471;Deensen;51.8597141557715;9.59413282936112
15496;Delligsen;51.94123;9.80201
15521;Derental;51.69517;9.43173000000002
15583;Dielmissen;51.97022;9.60723000000007
16055;Eimen;51.87725;9.78065000000004
16330;Eschershausen, Ith;51.9296;9.63922000000002
16758;Fürstenberg, Weser;51.72876;9.40271000000007
17204;Golmbach;51.89975;9.54498000000001
17814;Halle, Kreis Holzminden;51.99053;9.56191000000001
18045;Hehlen bei Holzminden;51.98538;9.47024999999996
18102;Heinade;51.83916;9.63291000000004
18116;Heinsen, Weser;51.8838297998633;9.43556159790046
18316;Heyen, Kreis Holzminden;52.00787;9.50481000000002
18578;Holenberg;51.90987;9.58590000000004
18610;Holzen, Kreis Holzminden;51.9343;9.66766000000007
18626;Holzminden;51.82612;9.46006
19267;Kirchbrak;51.96307;9.57236
20008;Lauenförde;51.65954;9.38643000000002
20141;Lenne am Solling;51.89509;9.68154000000004
20459;Lüererdissen am Ith;51.9522218143122;9.62542473022461
21309;Negenborn bei Holzminden;51.89154;9.5719
22253;Ottenstein, Niedersachsen;51.9458205748092;9.4083255767822
22351;Pegestorf;51.92787;9.49818000000005
22556;Polle, Weser;51.8979874515922;9.40317573547361
24446;Stadtoldendorf;51.8826255600708;9.62837066650388
25330;Vahlbruch;51.92079;9.34099
25670;Wangelnstedt;51.8691114290211;9.6879648571778
583;Nienburg (Weser);52.6118472972973;9.15533013513513
14054;Balge;52.7184;9.18648
14508;Binnen;52.6193;9.13230999999996
15111;Bücken bei Hoya;52.7795;9.13844
15591;Diepenau;52.42176;8.73274000000004
15795;Drakenburg;52.6911674248685;9.22883532806395
16364;Estorf, Weser;52.5925;9.14739
27086;Estorf;52.5881;9.1415
27085;Leeseringen;52.5975;9.15328
16410;Eystrup;52.7764;9.21752
16822;Gandesbergen;52.7602;9.2227
17746;Hämelhausen;52.7804;9.28035
17956;Hassel (Weser);52.8024;9.20549
17949;Haßbergen;52.7296;9.23009
18038;Heemsen;52.70526;9.25217999999995
27090;Anderten, Kreis Nienburg, Weser;52.7396039305149;9.32181539154055
27089;Gadesbünden;52.71419;9.27610000000004
27088;Heemsen;52.7427;9.26335
27087;Lichtenmoor;52.70553;9.30554000000006
18331;Hilgermissen;52.8442;9.15605
18692;Hoya, Weser;52.8065;9.13957
18693;Hoyerhagen;52.8289;9.08564
18760;Husum, Kreis Nienburg;52.56494;9.25058000000001
19884;Landesbergen;52.55833;9.12719000000004
27084;Brokeloh;52.5463;9.20846
27082;Heidhausen;52.5427;9.14445
27081;Landesbergen;52.5625;9.12458
27083;Hahnenberg, Kreis Nienburg, Weser;52.5306;9.12311
20063;Leese, Weser;52.50448;9.11532999999997
20207;Liebenau, Kreis Nienburg;52.6063866410104;9.08711796295165
20294;Linsburg;52.59313;9.30458999999996
20639;Marklohe;52.662384248725;9.15183294708254
21721;Nienburg (Weser);52.6493;9.23655
27076;Erichshagen-Wölpe;52.6645;9.24487
27075;Holtorf, Weser;52.6757;9.22713
27074;Langendamm, Kreis Nienburg, Weser;52.6173;9.26039
27091;Nienburg (Weser);52.6397;9.21383
22368;Pennigsehl;52.6478;9.02979
22733;Raddestorf;52.4552;8.96346
22891;Rehburg-Loccum;52.4508;9.20787
26930;Bad Rehburg;52.4382;9.21509
27073;Loccum;52.4539;9.14592
27072;Münchehagen;52.4395;9.1886
27071;Rehburg;52.47521;9.22946999999999
27070;Winzlar;52.4476;9.26071
23187;Rodewald;52.6658;9.48212
23264;Rohrsen, Kreis Nienburg;52.7099;9.23231
24080;Schweringen;52.7481;9.18352
24507;Steimbke;52.6622;9.40414
27080;Lichtenhorst;52.7188;9.40156
27079;Steimbke;52.6555;9.39121
27077;Wendenborstel;52.6469;9.43482
24609;Steyerberg;52.5846;8.99484
27069;Deblinghausen;52.59382;8.96942000000001
27068;Düdinghausen, Kreis Nienburg, Weser;52.5786;8.97081
27067;Steyerberg;52.5679;9.02598
27066;Voigtei;52.6083;8.92252
27065;Wellie;52.5755;9.07896
24627;Stöckse;52.6357;9.33874
27078;Wenden, Kreis Nienburg, Weser;52.6276;9.38899
24650;Stolzenau, Weser;52.5079;9.03611
27059;Anemolter;52.5454;9.07013
27064;Diethe bei Stolzenau, Weser;52.4736;9.00832
27063;Frestorf bei Stolzenau, Weser;52.4857;9.0039
27062;Hibben, Weser;52.5023;9.02892
27061;Holzhausen, Weser;52.5207;9.05688
27060;Müsleringen;52.4893;9.02745
27056;Nendorf bei Stolzenau, Weser;52.49969;8.98613
27058;Schinna;52.5364;9.07307
27055;Stolzenau;52.51719;9.06996000000004
27057;Anemolter-Schinna;52.5409;9.0716
25159;Uchte;52.4992;8.90905
25699;Warmsen;52.45252;8.84962999999993
25708;Warpe;52.7404;9.10518
26153;Wietzen;52.7103;9.0734
586;Schaumburg;52.2939525;9.2145336875
13427;Ahnsen bei Stadthagen;52.25603;9.09613999999999
13700;Apelern;52.3023;9.31588
26929;Apelern;52.2895;9.33355
26977;Groß Hegesdorf;52.3088;9.3065
26928;Kleinhegesdorf;52.3178;9.32185
26927;Lyhren;52.3007;9.31893
26926;Reinsdorf, Kreis Grafschaft Schaumburg;52.2895;9.28969
26925;Soldorf;52.3079;9.32477
13806;Auetal;52.2403;9.23321
26855;Altenhagen, Kreis Grafschaft Schaumburg;52.2611;9.05723
26853;Antendorf;52.2405;9.29261
26866;Bernsen, Kreis Grafschaft Schaumburg;52.2211;9.17053
26859;Borstel, Kreis Grafschaft Schaumburg;52.2292;9.19466
26876;Escher;52.2373;9.26702
27267;Hattendorf, Kreis Grafschaft Schaumburg;52.2346;9.28238
27246;Kathrinhagen;52.2364;9.20635
26976;Klein Holtensen;52.2611;9.28676
27190;Poggenhagen bei Rinteln;52.2288;9.20562
27187;Raden, Kreis Grafschaft Schaumburg;52.2297;9.31015
27184;Rannenberg bei Rinteln;52.2166;9.24729
27054;Rehren bei Rinteln;52.23397;9.23584000000005
27176;Rolfshagen, Kreis Grafschaft Schaumburg;52.2319;9.14422
27165;Schoholtensen;52.2679;9.28603
27115;Westerwald bei Rinteln;52.2499;9.23705
27112;Wiersen;52.26553;9.30664000000002
13815;Auhagen;52.39342;9.28323999999998
26915;Auhagen;52.3934143041495;9.2837879312134
26914;Düdinghausen, Kreis Grafschaft Schaumburg;52.4139;9.2975
13896;Bad Eilsen;52.2414;9.10255
13962;Bad Nenndorf;52.3407;9.36717
26955;Bad Nenndorf;52.3358;9.3774
26954;Horsten, Kreis Grafschaft Schaumburg;52.3393;9.35182
26953;Riepen;52.3447;9.33428
26952;Waltringhausen, Kreis Grafschaft Schaumburg;52.3429;9.40518
14187;Beckedorf bei Stadthagen;52.3443;9.31673
15085;Buchholz bei Stadthagen;52.2261;9.12375
15110;Bückeburg;52.2845;9.04948
26847;Achum;52.2868;9.08501
26867;Bergdorf;52.2548;9.06235
26898;Bückeburg;52.2607;9.04919
26896;Cammer;52.3119;8.99656
27290;Evesen;52.2818;8.99437
26981;Luhden-Selliendorf;52.2252;9.09232
27228;Meinsen;52.2966;9.05211
27216;Müsingen;52.2701;9.07258
27174;Rusbend;52.3119;9.06819
27167;Scheie;52.27628;9.05425000000002
27127;Warber;52.2939;9.06088
17760;Hagenburg bei Wunstorf;52.4341;9.3317
26913;Altenhagen;52.4382;9.3431
26912;Hagenburg;52.4301;9.32031
17963;Haste bei Wunstorf;52.3798;9.39202
18043;Heeßen;52.2346;9.10694
18145;Helpsen;52.3035;9.12521
26941;Helpsen;52.31072;9.12000999999998
26940;Kirchhorsten;52.3029;9.13252
26939;Südhorsten;52.2966;9.12594
18277;Hespe bei Stadthagen;52.3248;9.1101
26938;Hespe-Hiddensen;52.3335;9.10474
26937;Levesen, Kreis Schaumb-Lippe;52.3214;9.11936
26936;Stemmen, Kreis Schaumb-Lippe;52.3196;9.10621
18307;Heuerßen;52.3286019056854;9.27867793121345
26968;Heuerßen;52.3294;9.27872
26967;Kobbensen;52.3384;9.29042
18569;Hohnhorst bei Wunstorf;52.3657;9.35401
26951;Hohnhorst;52.36947;9.37130000000002
26950;Ohndorf;52.3551;9.34963
27053;Rehren bei Rodenberg, Deister;52.3731;9.34086
18713;Hülsede;52.2493;9.36278
26924;Hülsede;52.2499;9.36132
26923;Meinsen;52.2553;9.35255
26922;Schmarrie;52.2427;9.37448
20005;Lauenau;52.2782;9.3785
26921;Feggendorf;52.2836;9.38764
26920;Lauenau;52.2728;9.36936
20009;Lauenhagen bei Stadthagen;52.3629;9.21805
26946;Hülshagen;52.36816;9.21694000000002
26945;Lauenhagen;52.3569;9.20928
20279;Lindhorst bei Stadthagen;52.35817;9.28339000000005
26966;Lindhorst;52.3578;9.28311
26965;Ottensen, Kreis Grafschaft Schaumburg;52.3681;9.29919
26964;Schöttlingen, Kreis Schaumb-Lippe;52.3479;9.27872
20456;Lüdersfeld;52.3497;9.25057
26963;Lüdersfeld;52.3582;9.25094
26962;Vornhagen;52.3411;9.25021
20492;Luhden;52.2243;9.08281
26980;Schermbeck;52.2234;9.07258
20756;Meerbeck bei Stadthagen;52.3393;9.13374
26944;Kuckshagen;52.3358;9.1296
26943;Meerbeck;52.34272;9.15002000000004
26942;Volksdorf;52.3402;9.11936
20873;Messenkamp;52.260082;9.379738
26971;Altenhagen II;52.2616;9.39933
26919;Messenkamp;52.2589;9.39422
21662;Niedernwöhren;52.3519;9.1486
21729;Nienstädt bei Stadthagen;52.2898562524757;9.1628205978393
26935;Liekwegen;52.2863;9.17448999999999
26934;Nienstädt;52.28985;9.16275999999993
21803;Nordsehl;52.3555;9.18223
21957;Obernkirchen;52.2665;9.11775
27280;Gelldorf;52.2836;9.11863
27243;Krainhagen;52.2499;9.12229
27206;Obernkirchen;52.2701;9.12887
27172;Röhrkasten;52.2562;9.11644
27135;Vehlen, Kreis Schaumb-Lippe;52.2728;9.10255
22547;Pohle;52.2638;9.34012
22559;Pollhagen;52.3766;9.18808
23146;Rinteln;52.20205;9.07592
26857;Ahe, Kreis Grafschaft Schaumburg;52.1843;9.13849
26887;Deckbergen;52.2018;9.16834
26878;Engern, Kreis Grafschaft Schaumburg;52.1946;9.10719
27289;Exten;52.1694;9.09628
27282;Friedrichswald;52.1348;9.14795
27277;Goldbeck, Kreis Grafschaft Schaumburg;52.1034;9.15159
27258;Hohenrode, Kreis Grafschaft Schaumburg;52.1712;9.14941
27244;Kohlenstädt, Kreis Grafschaft Schaumburg;52.1856;9.14941
27241;Krankenhagen;52.1537;9.08099
27218;Möllenbeck, Kreis Grafschaft Schaumburg;52.1645;9.0315
27179;Rinteln;52.20205;9.07592
27168;Schaumburg, Kreis Grafschaft Schaumburg;52.20111;9.19529
27155;Steinbergen, Wesergebirge;52.2099;9.1201
27144;Todenmann;52.2122;9.05357
27143;Uchtdorf, Kreis Grafschaft Schaumburg;52.1578;9.09919
27132;Volksen, Kreis Grafschaft Schaumburg;52.1429;9.10719
27125;Wennenkamp;52.1447;9.13776
27123;Westendorf;52.2032;9.14787
27151;Strücken;52.1668;9.11593
23184;Rodenberg, Deister;52.3178;9.34999
26918;Algesdorf;52.3241;9.34305
26917;Rodenberg;52.3115;9.35694
26909;Sachsenhagen;52.3901;9.24729
26911;Nienbrügge;52.3829;9.22682
26910;Sachsenhagen;52.3969;9.26702
24153;Seggebruch;52.31122;9.11063000000001
26933;Schierneichen-Deinsen;52.3124;9.09305
26932;Seggebruch;52.31119;9.11037999999996
26931;Tallensen-Echtorf;52.2926;9.09159
24440;Stadthagen;52.3137;9.21318
26877;Enzen, Kreis Schaumb-Lippe;52.32456;9.15733999999998
27095;Habichhorst;52.31597;9.23292000000004
27262;Hobbensen, Kreis Schaumb-Lippe;52.3236;9.14422
27253;Hörkamp-Langenbruch;52.2917;9.23267
27240;Krebshagen;52.3011;9.20562
27205;Obernwöhren;52.3029;9.2429
27188;Probsthagen;52.3416;9.23267
27182;Reinsen-Remeringhausen;52.3182;9.27141
27156;Stadthagen;52.3232;9.19904
27126;Wendthagen-Ehlen;52.2935;9.20562
27098;Blyinghausen;52.3169;9.2524
27269;Habichhorst-Blyinghausen;52.3164;9.24399
24786;Suthfeld;52.3576;9.38934
26949;Helsinghausen;52.3641;9.38618
26948;Kreuzriehe;52.35595;9.38571999999999
26947;Riehe;52.3528;9.39568
26096;Wiedensahl;52.3825;9.11936
26351;Wölpinghausen;52.4195;9.25574
26908;Bergkirchen, Kreis Schaumb-Lippe;52.41252;9.25689
26907;Schmalenbruch-Windhorn;52.4193;9.27322
26906;Wiedenbrügge;52.4269;9.25997
26905;Wölpinghausen;52.4189;9.23275
590;Celle;52.61689;10.06343
13384;Adelheidsdorf;52.5736693219841;10.0665965502931
13426;Ahnsbeck;52.61094;10.2852
14195;Beedenbostel;52.642265117904;10.2595029153442
14311;Bergen (Kreis Celle);52.80974;9.96279000000004
14995;Bröckel, Kreis Celle;52.5171439575424;10.214554232788
15288;Celle;52.61709;10.0635
16046;Eicklingen;52.54862;10.1857199999999
16104;Eldingen;52.68363;10.34383
16322;Eschede;52.73436;10.2349
16447;Faßberg;52.8996;10.16631
17732;Habighorst;52.70852;10.22771
17837;Hambühren;52.62929;9.96704
18219;Hermannsburg;52.8359;10.0933199999999
18432;Höfer, Kreis Celle;52.6822333248282;10.2484979629517
18568;Hohne bei Celle;52.58764;10.37674
19843;Lachendorf, Kreis Celle;52.61962;10.24173
19960;Langlingen bei Celle;52.55586;10.28124
21726;Nienhagen bei Celle;52.55687;10.10517
23625;Scharnhorst, Kreis Celle;52.72452;10.27332
25251;Unterlüß;52.84503;10.2907299999999
25739;Wathlingen;52.53777;10.14843
26112;Wienhausen;52.57761;10.18625
26152;Wietze;52.65027;9.83573000000001
26259;Winsen (Aller);52.6835253848889;9.90973775463101
593;Cuxhaven;53.6117810344828;8.82787362068965
13709;Appeln;53.4527;8.89619
13732;Armstorf, Niederelbe;53.59799;9.07335
13865;Bad Bederkesa;53.62643;8.84382000000005
14261;Belum;53.81723;8.9931
14443;Beverstedt;53.4311;8.82124999999996
14726;Bokel bei Bremerhaven;53.39457;8.76761999999997
14848;Bramstedt bei Bremerhaven;53.36637;8.68935999999997
15125;Bülkau;53.7471;8.97896
15258;Cadenberge;53.76783;9.06902
15275;Cappel bei Bremerhaven;53.72783;8.56977000000006
15358;Cuxhaven;53.8618;8.69359
15780;Dorum bei Bremerhaven;53.68974;8.56716000000006
15796;Drangstedt;53.61489;8.74649999999997
15836;Driftsethe;53.3791530457135;8.6195882434082
16140;Elmlohe;53.5864;8.74220000000003
16542;Flögeln;53.66357;8.80257000000006
16659;Frelsdorf;53.49132;8.89940000000001
17011;Geversdorf, Niederelbe;53.79604;9.07861
17761;Hagen im Bremischen;53.35839;8.64605000000006
18021;Hechthausen;53.64117;9.23718
18041;Heerstedt;53.46547;8.75212999999997
18162;Hemmoor;53.69002;9.15252
18582;Hollen bei Bremerhaven;53.42438;8.70502999999997
18592;Hollnseth;53.56972;9.09167
18789;Ihlienworth;53.73911;8.91557
19318;Kirchwistedt;53.42332;8.89144999999996
19506;Köhlen bei Bremerhaven;53.5406;8.87702999999999
19771;Kührstedt;53.57786;8.80115999999998
19879;Lamstedt;53.63519;9.09732
19902;Langen bei Bremerhaven;53.61027;8.60697000000005
20297;Lintig;53.60386;8.88094999999998
20408;Loxstedt;53.47308;8.6472
20499;Lunestedt;53.43966;8.74247000000003
20916;Midlum bei Bremerhaven;53.73129;8.61796000000004
20953;Misselwarden;53.67446;8.51608999999996
20972;Mittelstenahe;53.65109;9.03905
21217;Mulsum bei Bremerhaven;53.66961;8.54733999999996
21415;Neuenkirchen, Land Hadeln;53.77773;8.89297
21455;Neuhaus (Oste);53.8015;9.03311
21798;Nordholz bei Bremerhaven;53.78675;8.61239999999998
21801;Nordleda;53.76308;8.83547
21946;Oberndorf, Oste;53.75166;9.14349
22065;Odisheim;53.69439;8.94117
22202;Osten, Oste;53.69471;9.18924
22206;Osterbruch, Niederelbe;53.77811;8.94164
22258;Otterndorf, Niederelbe;53.80827;8.89921
22288;Padingbüttel;53.69932;8.52735000000007
23144;Ringstedt;53.5610415414213;8.85274658203127
23518;Sandstedt;53.36002;8.52035999999998
23692;Schiffdorf;53.53111;8.65201999999999
24516;Steinau, Niederelbe;53.68281;8.86954
24613;Stinstedt, Niederelbe;53.65968;8.97196
24701;Stubben bei Bremerhaven;53.40946;8.78468999999996
25314;Uthlede;53.31019;8.57752000000005
25679;Wanna;53.74207;8.80898999999999
26238;Wingst;53.73626;9.08798
26447;Wremen;53.64907;8.51010999999994
26483;Wulsbüttel;53.3164308079339;8.66941658203132
596;Harburg;53.3085;9.97178093023256
13708;Appel, Nordheide;53.39063;9.74374999999998
13768;Asendorf, Nordheide;53.29369;9.98169000000007
14266;Bendestorf;53.3370869496726;9.96838661376955
14833;Brackel bei Winsen, Luhe;53.29972;10.04637
15094;Buchholz in der Nordheide;53.26606;9.883103
15724;Dohren, Nordheide;53.30507;9.70065999999997
15791;Drage, Elbe;53.41044;10.26114
15829;Drestedt;53.33005;9.76006
15978;Egestorf, Nordheide;53.19335;10.0625199999999
16409;Eyendorf, Lüneburger Heide;53.20341;10.1563
16837;Garlstorf am Walde;53.23695;10.1006
16841;Garstedt, Winsener Geest;53.28795;10.15464
17129;Gödenstorf;53.22989;10.13025
17831;Halvesbostel;53.3553;9.5986
17864;Handeloh;53.24489;9.84127000000001
17878;Hanstedt, Nordheide;53.2576701;10.01041
17903;Harmstorf, Kreis Harburg;53.3486166459425;9.98663448150637
18057;Heidenau, Nordheide;53.31464;9.65092000000004
18585;Hollenstedt, Nordheide;53.36577;9.71482000000003
18954;Jesteburg;53.31461;9.95568000000003
19024;Kakenstorf;53.30548;9.76196000000004
19541;Königsmoor, Nordheide;53.23503;9.62900999999999
20686;Marschacht;53.41477;10.36852
20697;Marxen, Auetal;53.31324;10.00281
21056;Moisburg;53.4062172343099;9.69742507934575
21585;Neu Wulmstorf, Niederelbe;53.46442;9.80046
22254;Otter;53.24022;9.74176999999997
22884;Regesbostel;53.3806701;9.64795000000004
23297;Rosengarten, Kreis Harburg;53.37711;9.89853
23497;Salzhausen, Lüneburger Heide;53.22261;10.16985
24149;Seevetal;53.38075;10.03942
24586;Stelle, Kreis Harburg;53.38454;10.10294
24890;Tespe;53.39699;10.41073
25024;Toppenstedt;53.26382;10.11376
25034;Tostedt;53.27857;9.72122999999999
25222;Undeloh;53.19864;9.97803999999996
25395;Vierhöfen bei Winsen, Luhe;53.26936;10.21475
25907;Welle, Nordheide;53.2349054278731;9.80349760055537
25955;Wenzendorf;53.35072;9.77087000000006
26260;Winsen (Luhe);53.36523;10.20917
26301;Wistedt, Nordheide;53.27019;9.67778999999996
26477;Wulfsen;53.2998;10.14058
351;Lüchow-Dannenberg;53.0244716814159;11.034896460177
14316;Bergen an der Dumme;52.8897;10.9418
27045;Banzau, Dumme;52.8877;10.9354
27051;Belau, Dumme;52.8757;10.9483
27050;Bergen;52.8908;10.9566
27049;Jiggel;52.90763;10.96149
27052;Malsleben, Dumme;52.8742;10.9229
27048;Nienbergen, Dumme;52.86181;10.9446
27047;Spithal;52.9046;10.9131
27046;Wöhningen, Dumme;52.8984;10.9266
26960;Brüchauer Mühle;52.9073;10.9455
15306;Clenze;52.9474;10.9295
27044;Bausen, Kreis Lüchow-Dannenberg;52.9685;10.9895
27030;Beseland;52.9584;10.9614
27043;Bösen;52.9338;10.9389
27029;Braudel;52.9834583707009;10.8733348121643
27028;Bussau;52.9558;10.9907
27027;Clenze;52.9368;10.9574
27042;Dalitz;52.9256;10.9711
27026;Gistenbeck;52.9274;10.9835
27041;Gohlefanz;52.9653;10.8988
27040;Granstedt, Kreis Lüchow-Dannenberg;52.9632;10.9953
26916;Groß Sachau;52.94854;10.99659
27039;Guhreitzen;52.9523;10.9794
27025;Kassau, Niedersachsen;52.91312;10.94677
27038;Kloster;52.9638;10.9021
27037;Korvin;52.9481;10.9383
27445;Kussebode;52.92199;11.00048
27036;Lefitz;52.9459;10.9266
27024;Meußließen;52.9403;10.8805
27035;Mützen;52.9401;10.9384
27034;Prießeck;52.9668;10.9737
27023;Quartzau;52.9418;10.8948
27022;Reddereitz;52.9655;10.9075
27033;Satkau;52.95059;10.8822299999999
27021;Schlannau;52.95205;10.89792
27032;Seelwig;52.95883;10.95304
27031;Vaddensen;52.9795;10.8878
15418;Damnatz;53.13531;11.17611
27297;Barnitz;53.1471;11.1702
27298;Damnatz;53.13462;11.1776
27295;Jasebeck;53.1618;11.1385
27294;Landsatz;53.1516;11.1659
27296;Kamerun;53.1156;11.1863
15430;Dannenberg (Elbe);53.0904;11.0924
27299;Breese in der Marsch;53.1099;11.1326
27318;Bückau;53.0761;11.1116
27319;Dambeck;53.1192;11.1243
27291;Dannenberg;53.0977;11.0943
27300;Groß Heide, Kreis Lüchow-Dannenberg;53.0538;11.1448
27320;Gümse;53.1126;11.14384
27301;Klein Heide, Kreis Lüchow-Dannenberg;53.06178;11.13303
27321;Liepehöfen;53.06405;11.11779
27302;Lüggau, Elbe;53.0977;11.0756
27303;Nebenstedt;53.0977;11.1266
27322;Niestedt, Elbe;53.0818;11.0576
27305;Penkefitz;53.1373;11.1387
27292;Pisselberg, Elbe;53.1126;11.0753
27306;Prabstorf, Kreis Lüchow-Dannenberg;53.0699;11.1204
27323;Predöhlsau, Elbe;53.1211;11.1008
27324;Prisser;53.0857;11.0696
27317;Riekau, Kreis Lüchow-Dannenberg;53.0719;11.0509
27307;Riskau, Kreis Lüchow-Dannenberg;53.1089;11.0325
27308;Schaafhausen, Kreis Lüchow-Dannenberg;53.0734;11.0696
27309;Schmarsau;53.0869;11.0541
27314;Seedorf;53.12007;11.14837
27512;Sipnitz, Elbe;53.1134;11.1648
27316;Soven;53.0594;11.1196
27310;Splietau;53.0926;11.1438
27311;Streetz, Kreis Lüchow-Dannenberg;53.1086;11.0593
27312;Tramm, Kreis Lüchow-Dannenberg;53.0645;11.0731
27313;Tripkau, Kreis Lüchow-Dannenberg;53.1054;11.0405
27304;Neu Tramm, Kreis Lüchow-Dannenberg;53.0595;11.0563
27315;Seybruch;53.10343;11.14903
16842;Gartow, Elbe;53.0052558798983;11.4043849731445
27325;Falkenmoor, Elbe;53.0147870908757;11.4368068809509
27326;Gartow;53.0251;11.4604
27327;Laasche, Elbe;53.0399548194304;11.4149870529175
27328;Nienwalde;53.0051;11.4879
27329;Quarnstedt, Elbe;53.0258;11.4681
27330;Rondel, Elbe;53.0108745120271;11.3895064735412
27331;Rucksmoor;53.0034;11.4423
27508;Schwedenschanze;53.0719;11.4384
17134;Göhrde;53.1233118884421;10.846874111023
27350;Bredenbock;53.1357;10.9522
27387;Dübbekold;53.1465;10.8859
27398;Göhrde;53.1399;10.8794
27404;Govelin;53.14759;10.93613
27438;Kollase;53.1139;10.8986
27454;Mailage, Kreis Lüchow-Dannenberg;53.1221;10.9108
27460;Metzingen, Niedersachsen;53.1298;10.9572
27464;Nadlitz;53.14582;10.86839
27481;Plumbohm, Kreis Lüchow-Dannenberg;53.11397;10.95014
27497;Sarenseck;53.1266;11.01892
27502;Schmardau, Kreis Lüchow-Dannenberg;53.11214;10.9688599999999
27503;Schmessau, Kreis Lüchow-Dannenberg;53.1219;10.9418
27504;Schnadlitz;53.12867;10.90484
27526;Tollendorf;53.14254;10.9605300000001
27534;Wedderien, Kreis Lüchow-Dannenberg;53.0981;10.9481
27546;Zienitz, Elbe;53.1083;10.8853
17225;Gorleben;53.0477;11.3717
27402;Gorleben;53.04731;11.3561500000001
27457;Meetschow;53.04725;11.38768
17698;Gusborn;53.0745;11.2012
27407;Groß Gusborn;53.0788;11.2165
27433;Klein Gusborn;53.08373;11.19498
27486;Quickborn, Kreis Lüchow-Dannenberg;53.1065;11.1956
27514;Siemen;53.0541;11.2224
27544;Zadrau;53.05012;11.17566
18397;Hitzacker (Elbe);53.1598;10.9995
27341;Bahrendorf;53.1866;10.9459
27405;Grabau, Elbe;53.1284;11.0838
27415;Harlingen;53.1503;10.9813
27421;Hitzacker;53.1507;11.0411
27427;Kähmen;53.1188;11.0538
27414;Meudelfitz, Gut;53.16118;10.99374
27461;Meudelfitz, Siedlung;53.1606;10.9932
27470;Nienwedel, Elbe;53.1349;11.0057
27482;Posade, Forsthaus;53.1573;10.9627
27485;Pussade;53.1476;10.9854
27496;Sarchem;53.1476;11.0022
27511;Seerau;53.1277;11.0553
27524;Tiesmesland;53.1898;10.9791
27525;Tießau;53.1802;10.9836
27547;Wietzetze bei Hitzacker;53.1845;10.9314
27543;Wussegel;53.0589;11.0786
27388;Eichengrund;53.1535;11.0157
27413;Hagen, Gut;53.1437;11.0232
27449;Leitstade;53.1573;10.9026
18436;Höhbeck;53.0561;11.4344
27357;Brünkendorf, Elbe;53.05605;11.42998
27476;Pevestorf;53.0584;11.4534
27492;Restorf;53.0417;11.4444
27532;Vietze;53.0694;11.4064
18911;Jameln;53.0413;11.0471
27351;Breese im Bruche;53.0518;11.0906
27352;Breselenz;53.0384;11.0612
27354;Breustian;53.0329;11.0344
27426;Jameln;53.0411;11.0768
27446;Langenhorst;53.04291;11.11812
27458;Mehlfien;53.0436;11.0091
27480;Platenlaase;53.0331;11.08224
27521;Teichlosen;53.03511;11.02334
27533;Volkfien;53.0434;11.0329
27539;Wibbese;53.0512;11.0006
27422;Hoheluft;53.0469;11.0217
27425;Jamelner Mühle;53.04582;11.09612
19122;Karwitz;53.0884;11.0166
27364;Dragahn;53.0918;10.9754
27395;Gamehlen;53.07028;11.0264999999999
27431;Karwitz;53.0869;11.0166
27447;Lebbien;53.0856;11.0293
27450;Lenzen;53.0899;11.0095
27465;Nausen;53.0886;11.0022
27484;Pudripp;53.0822;10.9373
27523;Thunpadel;53.0912;11.0284
27483;Pudripp / Bahnhof;53.0734;10.9435
19789;Küsten;52.97848;11.0618899999999
27429;Karmitz;53.0076;11.0627
27435;Klein Witzeetze;53.0261;11.0089
27442;Krummasel;53.0121;11.0484
27494;Saggrian;53.01959;11.0237999999999
27495;Sallahn;53.0249;10.9977
27527;Tolstefanz;53.0043;11.0316
27531;Tüschau;53.0191;11.0182
27473;Oldemühle;52.9984;11.0655
19919;Langendorf, Elbe;53.10529;11.2431300000001
20126;Lemgow, Niedersachsen;52.9171098152364;11.2836079629517
20412;Luckau (Wendland);52.92427;11.04552
20436;Lübbow;52.9108514255497;11.181111317444
20445;Lüchow (Wendland);52.9694;11.15616
21381;Neu Darchau;53.22852;10.8877
22627;Prezelle;52.96334;11.4009599999999
23813;Schnackenburg;53.0377386056206;11.5618076507568
23823;Schnega;52.8828;10.8701
27011;Billerbeck, Kreis Lüchow-Dannenberg;52.8735;10.8726
27010;Gielau, Kreis Lüchow-Dannenberg;52.8587;10.8511
27009;Gledeberg, Kreis Lüchow-Dannenberg;52.88229;10.85942
27008;Göhr;52.9004;10.8779
27020;Grotenhof;52.90395;10.89669
27019;Harpe, Kreis Lüchow-Dannenberg;52.8517;10.8843
27018;Kreyenhagen;52.9232;10.8771
27017;Külitz, Kreis Lüchow-Dannenberg;52.8677;10.8592
27007;Leisten;52.8772;10.9025
27016;Loitze;52.90469;10.83457
27006;Lütenthien;52.8951;10.8639
27015;Molden;52.89425;10.83227
27014;Oldendorf;52.8917;10.9072
27005;Proitze;52.8912;10.8355
27003;Schäpingen, Kreis Lüchow-Dannenberg;52.8651;10.8391
27004;Schnega;52.8901;10.8922
27013;Schnega / Bahnhof;52.86936;10.89031
27002;Solkau;52.9102;10.8392
27012;Starrel;52.9204;10.9094
27001;Thune, Kreis Lüchow-Dannenberg;52.8553;10.9125
27000;Warpke, Kreis Lüchow-Dannenberg;52.8616;10.8674
26999;Winterweyhe;52.9154;10.8986
26956;Proitzer Mühle;52.8912;10.8455
26957;Oldendorfer Mühle;52.8959;10.9074
26958;Harper Mühle;52.8563;10.8942
26959;Gielauer Mühle;52.8623;10.8569
26904;Bahnhof Varbitz;52.8678;10.8041
25060;Trebel;52.99603;11.31753
25502;Waddeweitz;52.99618;10.95894
26990;Bischof;52.9772;10.9677
26989;Diahren;52.9776;11.0059
26988;Dickfeitzen;52.9871;10.9394
26987;Dommatzen;52.9984;10.9485
26986;Gohlau;53.0168807193778;10.9264008148193
26979;Groß Gaddau;52.9822;10.9814
26903;Groß Wittfeitzen;53.0148;10.9463
26998;Hohenvolkfien;53.0083;10.9032
26997;Kiefen;52.9916;10.9637
26978;Klein Gaddau;52.9832;10.9885
26902;Klein Wittfeitzen;53.0079;10.9474
26996;Kröte;52.9939;10.9303
26995;Kukate;52.99761;10.98226
26994;Maddau;53.0129;10.9622
26993;Marlin;52.9978;11.0178
26985;Salderatzen;52.9855;11.0099
26992;Sareitz;53.0244;10.9581
26991;Schlanze;52.9789;10.9815
26984;Waddeweitz;52.9957;10.9577
26982;Zebelin;52.9927;11.0095
26983;Wittfeitzen;53.0113;10.9468
26423;Woltersdorf, Niedersachsen;52.9546;11.2184999999999
26503;Wustrow (Wendland);52.9231;11.1294800000001
26586;Zernien, Niedersachsen;53.07053;10.88492
355;Lüneburg;53.2448088888889;10.4674111111111
13396;Adendorf, Kreis Lüneburg;53.28312;10.44381
13651;Amelinghausen;53.12891;10.2141799999999
13746;Artlenburg;53.37176;10.48788
14090;Bardowick;53.2957936374866;10.3866473968505
14092;Barendorf, Kreis Lüneburg;53.22889;10.52253
14116;Barnstedt, Kreis Lüneburg;53.13632;10.3724500000001
14131;Barum, Kreis Lüneburg;53.34914;10.4081
14425;Betzendorf, Kreis Lüneburg;53.13775;10.31136
14593;Bleckede;53.28701;10.7323
14723;Boitze;53.14945;10.7483
14975;Brietlingen;53.33274;10.44302
15381;Dahlem, Niedersachsen;53.20398;10.74599
15384;Dahlenburg;53.18829;10.73804
15555;Deutsch Evern;53.20043;10.43267
15935;Echem;53.33741;10.5394699999999
16170;Embsen, Kreis Lüneburg;53.17818;10.3501
17866;Handorf, Winsener Marsch;53.34321;10.34442
18396;Hittbergen;53.34299;10.58966
18571;Hohnstorf (Elbe);53.36571;10.54359
19286;Kirchgellersen;53.23228;10.2924399999999
20453;Lüdersburg;53.31974;10.57365
20466;Lüneburg;53.24682;10.41178
20738;Mechtersen;53.2831282872923;10.3168737619019
20797;Melbeck;53.17661;10.41098
21250;Nahrendorf;53.1741187364366;10.8168416613769
21306;Neetze, Kreis Lüneburg;53.2672133425705;10.6249744232177
22146;Oldendorf (Luhe);53.15007;10.21471
22732;Radbruch;53.31178;10.2876699999999
22899;Rehlingen, Kreis Lüneburg;53.10315;10.22545
22967;Reinstorf, Kreis Lüneburg;53.23512;10.56907
23010;Reppenstedt;53.2499358066863;10.3497210502625
15369;Dachtmissen;53.2531838674961;10.3178587142943
23425;Rullstorf;53.28577;10.53264
23624;Scharnebeck bei Lüneburg;53.2925616385352;10.5012504760742
24318;Soderstorf;53.1427;10.1467700000001
24731;Südergellersen;53.2121;10.29509
18087;Heiligenthal, Kreis Lüneburg;53.22217;10.33541
24955;Thomasburg, Kreis Lüneburg;53.22654;10.6529800000001
25035;Tosterglope;53.2097;10.81987
25342;Vastorf;53.19705;10.5477100000001
25428;Vögelsen;53.27487;10.35221
25936;Wendisch Evern;53.21444;10.47357
26028;Westergellersen;53.23569;10.2456999999999
26331;Wittorf, Kreis Lüneburg;53.33138;10.38016
13667;Amt Neuhaus;53.2804167892567;10.9184942062379
359;Osterholz;53.2621090909091;8.83030272727273
13839;Axstedt;53.3539;8.77238999999997
17311;Grasberg bei Bremen;53.18175;8.98698000000002
17834;Hambergen bei Bremen;53.30642;8.82386999999994
18596;Holste;53.36679;8.83321000000001
20242;Lilienthal bei Bremen;53.15006;8.91281000000004
20434;Lübberstedt, Kreis Osterholz;53.33697;8.81240000000003
22218;Osterholz-Scharmbeck;53.22769;8.78381999999999
23155;Ritterhude;53.18533;8.74593000000004
24016;Schwanewede;53.22396;8.58969000000002
25463;Vollersode;53.32416;8.91079999999999
26442;Worpswede;53.22016;8.92676000000006
363;Rotenburg (Wümme);53.2526315789474;9.31257298245614
13414;Ahausen, Kreis Rotenburg, Wümme;53.06072;9.31073000000004
13490;Alfstedt bei Bremervörde;53.55426;9.06967
13673;Anderlingen;53.3742790615158;9.30257492065425
14137;Basdahl;53.44454;8.99923000000001
14713;Bötersen;53.13614;9.31587999999999
